[
{"model": "rzd.station", "pk": 1, "fields": {"name": "1425 Км", "kod": 16916, "csvt": "1691", "region": 5, "rvc": 5, "lon": 33.09876633, "lat": 68.79421234}},
{"model": "rzd.station", "pk": 2, "fields": {"name": "29 Км", "kod": 50565, "csvt": "2170", "region": 3, "rvc": 8, "lon": 38.18492126, "lat": 57.37718582}},
{"model": "rzd.station", "pk": 3, "fields": {"name": "Абросово", "kod": 43010, "csvt": "4301", "region": 6, "rvc": 6, "lon": 35.43467712, "lat": 58.71095657}},
{"model": "rzd.station", "pk": 4, "fields": {"name": "Автово", "kod": 35508, "csvt": "3550", "region": 2, "rvc": 7, "lon": 30.25034142, "lat": 59.86455154}},
{"model": "rzd.station", "pk": 5, "fields": {"name": "Академическая", "kod": 62900, "csvt": "6290", "region": 1, "rvc": 2, "lon": 34.34299469, "lat": 57.71800232}},
{"model": "rzd.station", "pk": 6, "fields": {"name": "Аконъярви", "kod": 26809, "csvt": "2680", "region": 4, "rvc": 4, "lon": 32.69776535, "lat": 62.73794937}},
{"model": "rzd.station", "pk": 7, "fields": {"name": "Алакуртти", "kod": 14709, "csvt": "1470", "region": 5, "rvc": 5, "lon": 30.34160614, "lat": 66.96334076}},
{"model": "rzd.station", "pk": 8, "fields": {"name": "Алешинка", "kod": 53101, "csvt": "5310", "region": 1, "rvc": 2, "lon": 33.80808258, "lat": 58.04511642}},
{"model": "rzd.station", "pk": 9, "fields": {"name": "Алхо", "kod": 22423, "csvt": "2242", "region": 3, "rvc": 8, "lon": 29.72483444, "lat": 61.32156372}},
{"model": "rzd.station", "pk": 10, "fields": {"name": "Амбарный", "kod": 13706, "csvt": "1370", "region": 4, "rvc": 4, "lon": 33.70964432, "lat": 65.89768982}},
{"model": "rzd.station", "pk": 11, "fields": {"name": "Андреаполь", "kod": 67903, "csvt": "6790", "region": 1, "rvc": 2, "lon": 32.26329422, "lat": 56.64615631}},
{"model": "rzd.station", "pk": 12, "fields": {"name": "Андреево", "kod": 45603, "csvt": "4560", "region": 3, "rvc": 8, "lon": 32.0387764, "lat": 59.55321503}},
{"model": "rzd.station", "pk": 13, "fields": {"name": "Антропшино", "kod": 32406, "csvt": "3240", "region": 2, "rvc": 7, "lon": 30.42685127, "lat": 59.64088821}},
{"model": "rzd.station", "pk": 14, "fields": {"name": "Анциферово-Мологское", "kod": 44206, "csvt": "4420", "region": 6, "rvc": 6, "lon": 33.99299622, "lat": 58.9596405}},
{"model": "rzd.station", "pk": 15, "fields": {"name": "Апатиты-2", "kod": 16009, "csvt": "1563", "region": 5, "rvc": 5, "lon": 33.42045975, "lat": 67.59225464}},
{"model": "rzd.station", "pk": 16, "fields": {"name": "Аристово", "kod": 63512, "csvt": "6351", "region": 1, "rvc": 1, "lon": 34.46038818, "lat": 56.19258118}},
{"model": "rzd.station", "pk": 17, "fields": {"name": "Артемово", "kod": 65734, "csvt": "6573", "region": 2, "rvc": 3, "lon": 31.15829849, "lat": 56.2836113}},
{"model": "rzd.station", "pk": 18, "fields": {"name": "Африканда", "kod": 15608, "csvt": "1560", "region": 5, "rvc": 5, "lon": 32.77815628, "lat": 67.44267273}},
{"model": "rzd.station", "pk": 19, "fields": {"name": "Ашево", "kod": 57140, "csvt": "5714", "region": 2, "rvc": 3, "lon": 29.89878273, "lat": 57.19509888}},
{"model": "rzd.station", "pk": 20, "fields": {"name": "Бабаево", "kod": 46409, "csvt": "4640", "region": 6, "rvc": 6, "lon": 35.94868088, "lat": 59.3858757}},
{"model": "rzd.station", "pk": 21, "fields": {"name": "Бабино", "kod": 42342, "csvt": "4234", "region": 3, "rvc": 8, "lon": 31.459095, "lat": 59.24061584}},
{"model": "rzd.station", "pk": 22, "fields": {"name": "Батецкая", "kod": 58302, "csvt": "5830", "region": 2, "rvc": 7, "lon": 30.3148613, "lat": 58.64807129}},
{"model": "rzd.station", "pk": 23, "fields": {"name": "Бежецк", "kod": 51708, "csvt": "5170", "region": 1, "rvc": 2, "lon": 36.69460297, "lat": 57.79776764}},
{"model": "rzd.station", "pk": 24, "fields": {"name": "Белое Море", "kod": 14802, "csvt": "1480", "region": 5, "rvc": 5, "lon": 32.26623154, "lat": 67.08101654}},
{"model": "rzd.station", "pk": 25, "fields": {"name": "Беломорск", "kod": 13000, "csvt": "1300", "region": 4, "rvc": 4, "lon": 34.77540207, "lat": 64.54123688}},
{"model": "rzd.station", "pk": 26, "fields": {"name": "Белоостров", "kod": 39208, "csvt": "3920", "region": 3, "rvc": 8, "lon": 30.0136795, "lat": 60.14433289}},
{"model": "rzd.station", "pk": 27, "fields": {"name": "Березайка", "kod": 53008, "csvt": "5300", "region": 1, "rvc": 2, "lon": 33.90751266, "lat": 57.98548126}},
{"model": "rzd.station", "pk": 28, "fields": {"name": "Бологое-Московское", "kod": 50009, "csvt": "5000", "region": 1, "rvc": 2, "lon": 34.06092834, "lat": 57.88600922}},
{"model": "rzd.station", "pk": 29, "fields": {"name": "Бологое-Полоцкое", "kod": 50103, "csvt": "5010", "region": 1, "rvc": 2, "lon": 34.11181641, "lat": 57.85691452}},
{"model": "rzd.station", "pk": 30, "fields": {"name": "Большая Вишера", "kod": 41706, "csvt": "4170", "region": 3, "rvc": 8, "lon": 32.0927887, "lat": 58.90876007}},
{"model": "rzd.station", "pk": 31, "fields": {"name": "Большая Ижора", "kod": 75204, "csvt": "7520", "region": 2, "rvc": 7, "lon": 29.56545067, "lat": 59.94144821}},
{"model": "rzd.station", "pk": 32, "fields": {"name": "Большой Двор", "kod": 47401, "csvt": "4740", "region": 6, "rvc": 6, "lon": 33.94842529, "lat": 59.60289764}},
{"model": "rzd.station", "pk": 33, "fields": {"name": "Борисова Грива", "kod": 36303, "csvt": "3630", "region": 3, "rvc": 8, "lon": 30.96513176, "lat": 60.09679794}},
{"model": "rzd.station", "pk": 34, "fields": {"name": "Боровенка", "kod": 41104, "csvt": "4110", "region": 3, "rvc": 8, "lon": 33.07516098, "lat": 58.48420715}},
{"model": "rzd.station", "pk": 35, "fields": {"name": "Боровинка", "kod": 22508, "csvt": "2250", "region": 3, "rvc": 8, "lon": 29.24504089, "lat": 60.96175766}},
{"model": "rzd.station", "pk": 36, "fields": {"name": "Боровичи", "kod": 53506, "csvt": "5350", "region": 1, "rvc": 2, "lon": 33.88961411, "lat": 58.38906479}},
{"model": "rzd.station", "pk": 37, "fields": {"name": "Бородинское", "kod": 22300, "csvt": "2230", "region": 3, "rvc": 8, "lon": 29.41582489, "lat": 61.0190239}},
{"model": "rzd.station", "pk": 38, "fields": {"name": "Бочановка", "kod": 52823, "csvt": "5282", "region": 1, "rvc": 2, "lon": 34.23328018, "lat": 57.80512238}},
{"model": "rzd.station", "pk": 39, "fields": {"name": "Боярская", "kod": 13710, "csvt": "1371", "region": 4, "rvc": 4, "lon": 33.35416794, "lat": 65.96250153}},
{"model": "rzd.station", "pk": 40, "fields": {"name": "Броневая", "kod": 35323, "csvt": "3532", "region": 2, "rvc": 7, "lon": 30.29279137, "lat": 59.87602997}},
{"model": "rzd.station", "pk": 41, "fields": {"name": "Бронка", "kod": 75308, "csvt": "7530", "region": 2, "rvc": 7, "lon": 29.65250587, "lat": 59.92868805}},
{"model": "rzd.station", "pk": 42, "fields": {"name": "Брусово", "kod": 52109, "csvt": "5210", "region": 1, "rvc": 2, "lon": 35.41332626, "lat": 57.85421371}},
{"model": "rzd.station", "pk": 43, "fields": {"name": "Брянцево", "kod": 61610, "csvt": "6161", "region": 1, "rvc": 1, "lon": 35.7968483, "lat": 56.90087509}},
{"model": "rzd.station", "pk": 44, "fields": {"name": "Будогощь", "kod": 45001, "csvt": "4500", "region": 6, "rvc": 6, "lon": 32.44265747, "lat": 59.28422165}},
{"model": "rzd.station", "pk": 45, "fields": {"name": "Бусловская", "kod": 28504, "csvt": "2850", "region": 3, "rvc": 8, "lon": 28.37717056, "lat": 60.84064484}},
{"model": "rzd.station", "pk": 46, "fields": {"name": "Бушевец", "kod": 52804, "csvt": "5280", "region": 1, "rvc": 2, "lon": 34.15272141, "lat": 57.85329819}},
{"model": "rzd.station", "pk": 47, "fields": {"name": "Ваенга", "kod": 19007, "csvt": "1900", "region": 5, "rvc": 5, "lon": 33.37707901, "lat": 69.05487061}},
{"model": "rzd.station", "pk": 48, "fields": {"name": "Валдай", "kod": 55200, "csvt": "5520", "region": 2, "rvc": 2, "lon": 33.24495697, "lat": 57.96985626}},
{"model": "rzd.station", "pk": 49, "fields": {"name": "Валя", "kod": 47647, "csvt": "4764", "region": 6, "rvc": 6, "lon": 32.946064, "lat": 59.71575546}},
{"model": "rzd.station", "pk": 50, "fields": {"name": "Васильевский Мох", "kod": 61803, "csvt": "6180", "region": 1, "rvc": 1, "lon": 35.91921616, "lat": 57.00748825}},
{"model": "rzd.station", "pk": 51, "fields": {"name": "Васкелово", "kod": 37560, "csvt": "3756", "region": 3, "rvc": 8, "lon": 30.3712101, "lat": 60.37110901}},
{"model": "rzd.station", "pk": 52, "fields": {"name": "Веймарн", "kod": 73603, "csvt": "7360", "region": 2, "rvc": 7, "lon": 28.84138298, "lat": 59.39154434}},
{"model": "rzd.station", "pk": 53, "fields": {"name": "Великие Луки", "kod": 66008, "csvt": "6600", "region": 2, "rvc": 3, "lon": 30.5635643, "lat": 56.3396759}},
{"model": "rzd.station", "pk": 54, "fields": {"name": "Верево", "kod": 34702, "csvt": "3470", "region": 2, "rvc": 7, "lon": 30.22065926, "lat": 59.64530945}},
{"model": "rzd.station", "pk": 55, "fields": {"name": "Верхневольский", "kod": 46606, "csvt": "4660", "region": 6, "rvc": 6, "lon": 35.43308258, "lat": 59.514534}},
{"model": "rzd.station", "pk": 56, "fields": {"name": "Весьегонск", "kod": 51604, "csvt": "5160", "region": 1, "rvc": 2, "lon": 37.26515579, "lat": 58.65412521}},
{"model": "rzd.station", "pk": 57, "fields": {"name": "Вешки", "kod": 70087, "csvt": "7008", "region": 2, "rvc": 3, "lon": 28.95642471, "lat": 57.74644089}},
{"model": "rzd.station", "pk": 58, "fields": {"name": "Видлица", "kod": 24607, "csvt": "2460", "region": 6, "rvc": 6, "lon": 32.38723373, "lat": 61.18410873}},
{"model": "rzd.station", "pk": 59, "fields": {"name": "Викторово", "kod": 51816, "csvt": "5181", "region": 1, "rvc": 2, "lon": 36.30594254, "lat": 57.79183197}},
{"model": "rzd.station", "pk": 60, "fields": {"name": "Владимирская", "kod": 32336, "csvt": "3233", "region": 2, "rvc": 7, "lon": 30.367033, "lat": 59.5737915}},
{"model": "rzd.station", "pk": 61, "fields": {"name": "Владимирский Лагерь", "kod": 71400, "csvt": "7140", "region": 2, "rvc": 3, "lon": 29.05758667, "lat": 58.22897339}},
{"model": "rzd.station", "pk": 62, "fields": {"name": "Власье", "kod": 67231, "csvt": "6723", "region": 2, "rvc": 3, "lon": 30.10621452, "lat": 56.25889969}},
{"model": "rzd.station", "pk": 63, "fields": {"name": "Воздухоплавательный Парк", "kod": 33042, "csvt": "3304", "region": 2, "rvc": 7, "lon": 30.34568787, "lat": 59.89077377}},
{"model": "rzd.station", "pk": 64, "fields": {"name": "Возрождение", "kod": 21609, "csvt": "2160", "region": 3, "rvc": 8, "lon": 28.94752502, "lat": 60.85997772}},
{"model": "rzd.station", "pk": 65, "fields": {"name": "Войбокало", "kod": 48207, "csvt": "4820", "region": 6, "rvc": 6, "lon": 31.76746178, "lat": 59.88033676}},
{"model": "rzd.station", "pk": 66, "fields": {"name": "Войсковицы", "kod": 74305, "csvt": "7430", "region": 2, "rvc": 7, "lon": 29.97130013, "lat": 59.52734756}},
{"model": "rzd.station", "pk": 67, "fields": {"name": "Войтоловка", "kod": 30237, "csvt": "3023", "region": 3, "rvc": 8, "lon": 30.95279884, "lat": 59.71977997}},
{"model": "rzd.station", "pk": 68, "fields": {"name": "Волковская", "kod": 33409, "csvt": "3340", "region": 2, "rvc": 7, "lon": 30.36120415, "lat": 59.89546585}},
{"model": "rzd.station", "pk": 69, "fields": {"name": "Волосово", "kod": 74004, "csvt": "7400", "region": 2, "rvc": 7, "lon": 29.48017693, "lat": 59.44172287}},
{"model": "rzd.station", "pk": 70, "fields": {"name": "Волхово", "kod": 41848, "csvt": "4184", "region": 3, "rvc": 8, "lon": 31.75260544, "lat": 59.08309174}},
{"model": "rzd.station", "pk": 71, "fields": {"name": "Волховстрой-1", "kod": 40008, "csvt": "4000", "region": 6, "rvc": 6, "lon": 32.30067825, "lat": 59.92121124}},
{"model": "rzd.station", "pk": 72, "fields": {"name": "Волховстрой-2", "kod": 48001, "csvt": "4800", "region": 6, "rvc": 6, "lon": 32.35452652, "lat": 59.91756821}},
{"model": "rzd.station", "pk": 73, "fields": {"name": "Вруда", "kod": 73800, "csvt": "7380", "region": 2, "rvc": 7, "lon": 29.28192329, "lat": 59.42112732}},
{"model": "rzd.station", "pk": 74, "fields": {"name": "Всеволожская", "kod": 36712, "csvt": "3671", "region": 3, "rvc": 8, "lon": 30.64876938, "lat": 60.01444626}},
{"model": "rzd.station", "pk": 75, "fields": {"name": "Выг", "kod": 12741, "csvt": "1274", "region": 4, "rvc": 4, "lon": 34.72225189, "lat": 64.50848389}},
{"model": "rzd.station", "pk": 76, "fields": {"name": "Вырица", "kod": 59004, "csvt": "5900", "region": 2, "rvc": 7, "lon": 30.34494781, "lat": 59.4144783}},
{"model": "rzd.station", "pk": 77, "fields": {"name": "Выходной", "kod": 16920, "csvt": "1692", "region": 5, "rvc": 5, "lon": 33.08206558, "lat": 68.83666992}},
{"model": "rzd.station", "pk": 78, "fields": {"name": "Вышний Волочек", "kod": 62702, "csvt": "6270", "region": 1, "rvc": 2, "lon": 34.56306076, "lat": 57.59922791}},
{"model": "rzd.station", "pk": 79, "fields": {"name": "Вяртсиля", "kod": 24109, "csvt": "2410", "region": 4, "rvc": 4, "lon": 30.64453506, "lat": 62.16742706}},
{"model": "rzd.station", "pk": 80, "fields": {"name": "Гаврилово", "kod": 20907, "csvt": "2090", "region": 3, "rvc": 8, "lon": 29.04432487, "lat": 60.5910759}},
{"model": "rzd.station", "pk": 81, "fields": {"name": "Гатчина-Варшавская", "kod": 34026, "csvt": "3402", "region": 2, "rvc": 7, "lon": 30.13322258, "lat": 59.55264282}},
{"model": "rzd.station", "pk": 82, "fields": {"name": "Гатчина-Товарная-Балтийская", "kod": 34007, "csvt": "3400", "region": 2, "rvc": 7, "lon": 30.10823631, "lat": 59.54415894}},
{"model": "rzd.station", "pk": 83, "fields": {"name": "Гимольская", "kod": 26937, "csvt": "2693", "region": 4, "rvc": 4, "lon": 32.50928116, "lat": 62.93160629}},
{"model": "rzd.station", "pk": 84, "fields": {"name": "Глажево", "kod": 45505, "csvt": "4550", "region": 3, "rvc": 8, "lon": 32.10598373, "lat": 59.65576172}},
{"model": "rzd.station", "pk": 85, "fields": {"name": "Глухоозерская", "kod": 33413, "csvt": "3341", "region": 3, "rvc": 8, "lon": 30.38748932, "lat": 59.90903854}},
{"model": "rzd.station", "pk": 86, "fields": {"name": "Горелый Мост", "kod": 12328, "csvt": "1232", "region": 4, "rvc": 4, "lon": 34.66435623, "lat": 64.51644135}},
{"model": "rzd.station", "pk": 87, "fields": {"name": "Горы", "kod": 30222, "csvt": "3022", "region": 3, "rvc": 8, "lon": 30.94581985, "lat": 59.76764297}},
{"model": "rzd.station", "pk": 88, "fields": {"name": "Гриблянка", "kod": 52433, "csvt": "5243", "region": 1, "rvc": 2, "lon": 34.77031326, "lat": 57.9070015}},
{"model": "rzd.station", "pk": 89, "fields": {"name": "Громово", "kod": 22705, "csvt": "2270", "region": 3, "rvc": 8, "lon": 30.07390213, "lat": 60.72546387}},
{"model": "rzd.station", "pk": 90, "fields": {"name": "Грузино", "kod": 37607, "csvt": "3760", "region": 3, "rvc": 8, "lon": 30.43087387, "lat": 60.31753159}},
{"model": "rzd.station", "pk": 91, "fields": {"name": "Гряды", "kod": 41852, "csvt": "4185", "region": 3, "rvc": 8, "lon": 31.96120071, "lat": 58.97211075}},
{"model": "rzd.station", "pk": 92, "fields": {"name": "Гузятино", "kod": 54800, "csvt": "5480", "region": 1, "rvc": 2, "lon": 33.88234329, "lat": 57.91036987}},
{"model": "rzd.station", "pk": 93, "fields": {"name": "Девяткино", "kod": 38027, "csvt": "3802", "region": 3, "rvc": 8, "lon": 30.44280815, "lat": 60.05052567}},
{"model": "rzd.station", "pk": 94, "fields": {"name": "Дедовичи", "kod": 57403, "csvt": "5740", "region": 2, "rvc": 3, "lon": 29.94346619, "lat": 57.55257034}},
{"model": "rzd.station", "pk": 95, "fields": {"name": "Деревянка", "kod": 49801, "csvt": "4980", "region": 4, "rvc": 4, "lon": 34.45046616, "lat": 61.5630188}},
{"model": "rzd.station", "pk": 96, "fields": {"name": "Дно", "kod": 56701, "csvt": "5670", "region": 2, "rvc": 3, "lon": 29.96135712, "lat": 57.82389069}},
{"model": "rzd.station", "pk": 97, "fields": {"name": "Добывалово", "kod": 55107, "csvt": "5510", "region": 1, "rvc": 2, "lon": 33.42577362, "lat": 57.9336586}},
{"model": "rzd.station", "pk": 98, "fields": {"name": "Дор", "kod": 51110, "csvt": "5111", "region": 1, "rvc": 1, "lon": 37.08776855, "lat": 57.91186523}},
{"model": "rzd.station", "pk": 99, "fields": {"name": "Доронинская", "kod": 61705, "csvt": "6170", "region": 1, "rvc": 1, "lon": 35.89638519, "lat": 56.95341873}},
{"model": "rzd.station", "pk": 100, "fields": {"name": "Дорошиха", "kod": 61659, "csvt": "6165", "region": 1, "rvc": 1, "lon": 35.83911133, "lat": 56.86863708}},
{"model": "rzd.station", "pk": 101, "fields": {"name": "Дремуха", "kod": 52414, "csvt": "5241", "region": 1, "rvc": 2, "lon": 34.6595726, "lat": 57.92361069}},
{"model": "rzd.station", "pk": 102, "fields": {"name": "Дынино", "kod": 42713, "csvt": "4271", "region": 6, "rvc": 6, "lon": 36.6271019, "lat": 58.39645004}},
{"model": "rzd.station", "pk": 103, "fields": {"name": "Едрово", "kod": 55003, "csvt": "5500", "region": 1, "rvc": 2, "lon": 33.63330841, "lat": 57.91897202}},
{"model": "rzd.station", "pk": 104, "fields": {"name": "Елизаветино", "kod": 74201, "csvt": "7420", "region": 2, "rvc": 7, "lon": 29.78091812, "lat": 59.49212265}},
{"model": "rzd.station", "pk": 105, "fields": {"name": "Елизаровка", "kod": 62609, "csvt": "6260", "region": 1, "rvc": 2, "lon": 34.66199493, "lat": 57.57913589}},
{"model": "rzd.station", "pk": 106, "fields": {"name": "Еремково", "kod": 52202, "csvt": "5220", "region": 1, "rvc": 2, "lon": 35.268013, "lat": 57.85992432}},
{"model": "rzd.station", "pk": 107, "fields": {"name": "Ефимовская", "kod": 47007, "csvt": "4700", "region": 6, "rvc": 6, "lon": 34.67530441, "lat": 59.49547577}},
{"model": "rzd.station", "pk": 108, "fields": {"name": "Жарок", "kod": 45266, "csvt": "4526", "region": 3, "rvc": 8, "lon": 31.65629196, "lat": 59.56354141}},
{"model": "rzd.station", "pk": 109, "fields": {"name": "Жижица", "kod": 65611, "csvt": "6560", "region": 2, "rvc": 3, "lon": 31.34948349, "lat": 56.28176117}},
{"model": "rzd.station", "pk": 110, "fields": {"name": "Жихарево", "kod": 48404, "csvt": "4840", "region": 3, "rvc": 8, "lon": 31.5782032, "lat": 59.84623718}},
{"model": "rzd.station", "pk": 111, "fields": {"name": "Забелье", "kod": 66421, "csvt": "6642", "region": 2, "rvc": 3, "lon": 29.62689209, "lat": 56.35053253}},
{"model": "rzd.station", "pk": 112, "fields": {"name": "Заборье", "kod": 46700, "csvt": "4670", "region": 6, "rvc": 6, "lon": 35.2257576, "lat": 59.51537323}},
{"model": "rzd.station", "pk": 113, "fields": {"name": "Завидово", "kod": 61305, "csvt": "6130", "region": 1, "rvc": 1, "lon": 36.43787766, "lat": 56.55186462}},
{"model": "rzd.station", "pk": 114, "fields": {"name": "Заозерье", "kod": 53722, "csvt": "5372", "region": 3, "rvc": 8, "lon": 33.16966248, "lat": 58.43159866}},
{"model": "rzd.station", "pk": 115, "fields": {"name": "Заостровье", "kod": 49021, "csvt": "4902", "region": 6, "rvc": 6, "lon": 33.31514359, "lat": 60.62286758}},
{"model": "rzd.station", "pk": 116, "fields": {"name": "Западная Двина", "kod": 65306, "csvt": "6530", "region": 1, "rvc": 1, "lon": 32.07366562, "lat": 56.26227951}},
{"model": "rzd.station", "pk": 117, "fields": {"name": "Заполярная", "kod": 18108, "csvt": "1810", "region": 5, "rvc": 5, "lon": 30.79452324, "lat": 69.4080658}},
{"model": "rzd.station", "pk": 118, "fields": {"name": "Застава", "kod": 25718, "csvt": "2571", "region": 4, "rvc": 4, "lon": 32.77358246, "lat": 61.8898468}},
{"model": "rzd.station", "pk": 119, "fields": {"name": "Зеленогорск", "kod": 39301, "csvt": "3930", "region": 3, "rvc": 8, "lon": 29.70046616, "lat": 60.20549011}},
{"model": "rzd.station", "pk": 120, "fields": {"name": "Земцы", "kod": 64820, "csvt": "6482", "region": 1, "rvc": 1, "lon": 32.37876129, "lat": 56.24537659}},
{"model": "rzd.station", "pk": 121, "fields": {"name": "Злино", "kod": 50048, "csvt": "5004", "region": 1, "rvc": 2, "lon": 33.98350906, "lat": 57.90736389}},
{"model": "rzd.station", "pk": 122, "fields": {"name": "Золотково", "kod": 51017, "csvt": "5101", "region": 1, "rvc": 1, "lon": 37.23532867, "lat": 57.68144989}},
{"model": "rzd.station", "pk": 123, "fields": {"name": "Зубцов", "kod": 63508, "csvt": "6350", "region": 1, "rvc": 1, "lon": 34.55937195, "lat": 56.16254425}},
{"model": "rzd.station", "pk": 124, "fields": {"name": "Ивангород-Нарвский", "kod": 73302, "csvt": "7330", "region": 2, "rvc": 7, "lon": 28.23401642, "lat": 59.3671875}},
{"model": "rzd.station", "pk": 125, "fields": {"name": "Идель", "kod": 12101, "csvt": "1210", "region": 4, "rvc": 4, "lon": 34.2457428, "lat": 64.13703918}},
{"model": "rzd.station", "pk": 126, "fields": {"name": "Идрица", "kod": 66309, "csvt": "6630", "region": 2, "rvc": 3, "lon": 28.89573288, "lat": 56.3272934}},
{"model": "rzd.station", "pk": 127, "fields": {"name": "Ижоры", "kod": 30811, "csvt": "3080", "region": 3, "rvc": 8, "lon": 30.56246185, "lat": 59.8080368}},
{"model": "rzd.station", "pk": 128, "fields": {"name": "Имандра", "kod": 16140, "csvt": "1614", "region": 5, "rvc": 5, "lon": 33.25865173, "lat": 67.8522644}},
{"model": "rzd.station", "pk": 129, "fields": {"name": "Иматозеро", "kod": 25603, "csvt": "2560", "region": 4, "rvc": 4, "lon": 33.08821106, "lat": 61.84601212}},
{"model": "rzd.station", "pk": 130, "fields": {"name": "Индустрия", "kod": 62420, "csvt": "6242", "region": 1, "rvc": 2, "lon": 34.83256149, "lat": 57.52480316}},
{"model": "rzd.station", "pk": 131, "fields": {"name": "Ирса", "kod": 42107, "csvt": "4210", "region": 3, "rvc": 8, "lon": 31.90164566, "lat": 59.45331192}},
{"model": "rzd.station", "pk": 132, "fields": {"name": "Кааламо", "kod": 23905, "csvt": "2390", "region": 4, "rvc": 4, "lon": 30.50342941, "lat": 61.89603043}},
{"model": "rzd.station", "pk": 133, "fields": {"name": "Кабожа", "kod": 43203, "csvt": "4320", "region": 6, "rvc": 6, "lon": 35.03002548, "lat": 58.80455399}},
{"model": "rzd.station", "pk": 134, "fields": {"name": "Кадуй", "kod": 46108, "csvt": "4610", "region": 6, "rvc": 6, "lon": 37.15055466, "lat": 59.19633102}},
{"model": "rzd.station", "pk": 135, "fields": {"name": "Калашниково", "kod": 62308, "csvt": "6230", "region": 1, "rvc": 1, "lon": 35.21768188, "lat": 57.278862}},
{"model": "rzd.station", "pk": 136, "fields": {"name": "Калище", "kod": 74803, "csvt": "7480", "region": 2, "rvc": 7, "lon": 29.10511589, "lat": 59.88276672}},
{"model": "rzd.station", "pk": 137, "fields": {"name": "Калязин", "kod": 50508, "csvt": "5050", "region": 1, "rvc": 2, "lon": 37.83067322, "lat": 57.23423386}},
{"model": "rzd.station", "pk": 138, "fields": {"name": "Каменногорск", "kod": 21702, "csvt": "2170", "region": 3, "rvc": 8, "lon": 29.1083889, "lat": 60.9619751}},
{"model": "rzd.station", "pk": 139, "fields": {"name": "Кандалакша", "kod": 14906, "csvt": "1490", "region": 5, "rvc": 5, "lon": 32.41910172, "lat": 67.16020966}},
{"model": "rzd.station", "pk": 140, "fields": {"name": "Каннельярви", "kod": 39602, "csvt": "3960", "region": 3, "rvc": 8, "lon": 29.3887043, "lat": 60.35778046}},
{"model": "rzd.station", "pk": 141, "fields": {"name": "Капитолово", "kod": 38008, "csvt": "3800", "region": 3, "rvc": 8, "lon": 30.47208786, "lat": 60.09449768}},
{"model": "rzd.station", "pk": 142, "fields": {"name": "Кафтино", "kod": 52607, "csvt": "5260", "region": 1, "rvc": 2, "lon": 34.30593872, "lat": 57.93572617}},
{"model": "rzd.station", "pk": 143, "fields": {"name": "Кашин", "kod": 50809, "csvt": "5080", "region": 1, "rvc": 2, "lon": 37.58969116, "lat": 57.35275269}},
{"model": "rzd.station", "pk": 144, "fields": {"name": "Кедрозеро", "kod": 10801, "csvt": "1080", "region": 4, "rvc": 4, "lon": 34.48793793, "lat": 62.36235428}},
{"model": "rzd.station", "pk": 145, "fields": {"name": "Кемь", "kod": 13208, "csvt": "1320", "region": 4, "rvc": 4, "lon": 34.57009506, "lat": 64.95523834}},
{"model": "rzd.station", "pk": 146, "fields": {"name": "Кереть", "kod": 13829, "csvt": "1382", "region": 5, "rvc": 5, "lon": 32.90111923, "lat": 66.19783783}},
{"model": "rzd.station", "pk": 147, "fields": {"name": "Керстово", "kod": 74409, "csvt": "7440", "region": 2, "rvc": 7, "lon": 28.78150368, "lat": 59.4379158}},
{"model": "rzd.station", "pk": 148, "fields": {"name": "Кесова Гора", "kod": 51002, "csvt": "5100", "region": 1, "rvc": 2, "lon": 37.30608749, "lat": 57.58398819}},
{"model": "rzd.station", "pk": 149, "fields": {"name": "Кивиярви", "kod": 28006, "csvt": "2800", "region": 4, "rvc": 4, "lon": 30.06417656, "lat": 64.54953003}},
{"model": "rzd.station", "pk": 150, "fields": {"name": "Кикерино", "kod": 74108, "csvt": "7410", "region": 2, "rvc": 7, "lon": 29.62773705, "lat": 59.46588898}},
{"model": "rzd.station", "pk": 151, "fields": {"name": "Кингисепп", "kod": 73507, "csvt": "7350", "region": 2, "rvc": 7, "lon": 28.60246086, "lat": 59.36806107}},
{"model": "rzd.station", "pk": 152, "fields": {"name": "Кирилловское", "kod": 20803, "csvt": "2080", "region": 3, "rvc": 8, "lon": 29.28494072, "lat": 60.46739197}},
{"model": "rzd.station", "pk": 153, "fields": {"name": "Кириши", "kod": 45209, "csvt": "4520", "region": 6, "rvc": 6, "lon": 32.02768326, "lat": 59.45757675}},
{"model": "rzd.station", "pk": 154, "fields": {"name": "Кирпичный Завод", "kod": 36407, "csvt": "3640", "region": 3, "rvc": 8, "lon": 30.79610062, "lat": 60.00788116}},
{"model": "rzd.station", "pk": 155, "fields": {"name": "Кица", "kod": 16742, "csvt": "1674", "region": 5, "rvc": 5, "lon": 33.18435287, "lat": 68.51278687}},
{"model": "rzd.station", "pk": 156, "fields": {"name": "Клин", "kod": 60904, "csvt": "6090", "region": 1, "rvc": 1, "lon": 36.71156311, "lat": 56.33095551}},
{"model": "rzd.station", "pk": 157, "fields": {"name": "Княжая", "kod": 14408, "csvt": "1440", "region": 5, "rvc": 5, "lon": 32.35462952, "lat": 66.81972504}},
{"model": "rzd.station", "pk": 158, "fields": {"name": "Княжьи Горы", "kod": 63315, "csvt": "6331", "region": 1, "rvc": 1, "lon": 35.23569489, "lat": 56.07487106}},
{"model": "rzd.station", "pk": 159, "fields": {"name": "Кобралово", "kod": 32355, "csvt": "3235", "region": 2, "rvc": 7, "lon": 30.38982391, "lat": 59.58842468}},
{"model": "rzd.station", "pk": 160, "fields": {"name": "Ковда", "kod": 14376, "csvt": "1437", "region": 5, "rvc": 5, "lon": 32.63928986, "lat": 66.71188354}},
{"model": "rzd.station", "pk": 161, "fields": {"name": "Ковдор", "kod": 15400, "csvt": "1540", "region": 5, "rvc": 5, "lon": 30.48161125, "lat": 67.54933167}},
{"model": "rzd.station", "pk": 162, "fields": {"name": "Кола", "kod": 17001, "csvt": "1700", "region": 5, "rvc": 5, "lon": 33.05109406, "lat": 68.88895416}},
{"model": "rzd.station", "pk": 163, "fields": {"name": "Колежма", "kod": 12614, "csvt": "1261", "region": 4, "rvc": 4, "lon": 35.72761536, "lat": 64.11831665}},
{"model": "rzd.station", "pk": 164, "fields": {"name": "Коли", "kod": 47100, "csvt": "4710", "region": 6, "rvc": 6, "lon": 34.4940033, "lat": 59.5021286}},
{"model": "rzd.station", "pk": 165, "fields": {"name": "Колпино", "kod": 31600, "csvt": "3160", "region": 3, "rvc": 8, "lon": 30.61450958, "lat": 59.74979019}},
{"model": "rzd.station", "pk": 166, "fields": {"name": "Колтуши", "kod": 30523, "csvt": "3052", "region": 3, "rvc": 8, "lon": 30.67392349, "lat": 59.86397171}},
{"model": "rzd.station", "pk": 167, "fields": {"name": "Колчаново", "kod": 48601, "csvt": "4860", "region": 6, "rvc": 6, "lon": 32.60063934, "lat": 60.04450607}},
{"model": "rzd.station", "pk": 168, "fields": {"name": "Комариха", "kod": 46042, "csvt": "4604", "region": 6, "rvc": 6, "lon": 37.36878586, "lat": 59.16825104}},
{"model": "rzd.station", "pk": 169, "fields": {"name": "Комсомольск-Мурманский", "kod": 18606, "csvt": "1860", "region": 5, "rvc": 5, "lon": 33.09741592, "lat": 69.01953125}},
{"model": "rzd.station", "pk": 170, "fields": {"name": "Конаково Грэс", "kod": 61201, "csvt": "6120", "region": 1, "rvc": 1, "lon": 36.78852081, "lat": 56.71761322}},
{"model": "rzd.station", "pk": 171, "fields": {"name": "Кондопога", "kod": 10708, "csvt": "1070", "region": 4, "rvc": 4, "lon": 34.27616501, "lat": 62.20932007}},
{"model": "rzd.station", "pk": 172, "fields": {"name": "Костомукша-Пассажирская", "kod": 27906, "csvt": "2790", "region": 4, "rvc": 4, "lon": 30.60281944, "lat": 64.60838318}},
{"model": "rzd.station", "pk": 173, "fields": {"name": "Костомукша-Товарная", "kod": 27802, "csvt": "2780", "region": 4, "rvc": 4, "lon": 30.789114, "lat": 64.63208771}},
{"model": "rzd.station", "pk": 174, "fields": {"name": "Котлы", "kod": 74606, "csvt": "7460", "region": 2, "rvc": 7, "lon": 28.75788498, "lat": 59.61286926}},
{"model": "rzd.station", "pk": 175, "fields": {"name": "Котлы-2", "kod": 74540, "csvt": "7460", "region": 2, "rvc": 7, "lon": 28.71027184, "lat": 59.60659027}},
{"model": "rzd.station", "pk": 176, "fields": {"name": "Котово", "kod": 54104, "csvt": "5410", "region": 6, "rvc": 6, "lon": 33.47649002, "lat": 58.48704529}},
{"model": "rzd.station", "pk": 177, "fields": {"name": "Кочкома", "kod": 12008, "csvt": "1200", "region": 4, "rvc": 4, "lon": 34.24767685, "lat": 64.03502655}},
{"model": "rzd.station", "pk": 178, "fields": {"name": "Красненка", "kod": 41513, "csvt": "4151", "region": 3, "rvc": 8, "lon": 32.36936188, "lat": 58.77438354}},
{"model": "rzd.station", "pk": 179, "fields": {"name": "Красное Село", "kod": 34308, "csvt": "3430", "region": 2, "rvc": 7, "lon": 30.10408783, "lat": 59.73111725}},
{"model": "rzd.station", "pk": 180, "fields": {"name": "Красный Холм", "kod": 51303, "csvt": "5130", "region": 1, "rvc": 2, "lon": 37.10538483, "lat": 58.04874039}},
{"model": "rzd.station", "pk": 181, "fields": {"name": "Крюково", "kod": 60500, "csvt": "6050", "region": 1, "rvc": 1, "lon": 37.17361832, "lat": 55.98015976}},
{"model": "rzd.station", "pk": 182, "fields": {"name": "Крюково-Грузовое", "kod": 60603, "csvt": "6060", "region": 1, "rvc": 1, "lon": 37.19329071, "lat": 56.00562668}},
{"model": "rzd.station", "pk": 183, "fields": {"name": "Крючково", "kod": 62026, "csvt": "6202", "region": 1, "rvc": 1, "lon": 35.57103729, "lat": 57.0547142}},
{"model": "rzd.station", "pk": 184, "fields": {"name": "Кувшиново", "kod": 68802, "csvt": "6880", "region": 1, "rvc": 2, "lon": 34.18549347, "lat": 57.02666092}},
{"model": "rzd.station", "pk": 185, "fields": {"name": "Куженкино", "kod": 69608, "csvt": "6960", "region": 1, "rvc": 2, "lon": 33.97581863, "lat": 57.72712326}},
{"model": "rzd.station", "pk": 186, "fields": {"name": "Кузема", "kod": 13509, "csvt": "1350", "region": 4, "rvc": 4, "lon": 34.26403427, "lat": 65.35386658}},
{"model": "rzd.station", "pk": 187, "fields": {"name": "Кузнечное", "kod": 23106, "csvt": "2310", "region": 3, "rvc": 8, "lon": 29.87439156, "lat": 61.11316681}},
{"model": "rzd.station", "pk": 188, "fields": {"name": "Кузьминка", "kod": 61428, "csvt": "6142", "region": 1, "rvc": 1, "lon": 36.13674545, "lat": 56.71718979}},
{"model": "rzd.station", "pk": 189, "fields": {"name": "Куколь", "kod": 47825, "csvt": "4782", "region": 6, "rvc": 6, "lon": 32.49556351, "lat": 59.87673569}},
{"model": "rzd.station", "pk": 190, "fields": {"name": "Кулицкая", "kod": 61644, "csvt": "6164", "region": 1, "rvc": 1, "lon": 35.67899704, "lat": 56.97855759}},
{"model": "rzd.station", "pk": 191, "fields": {"name": "Куна", "kod": 16231, "csvt": "1623", "region": 5, "rvc": 5, "lon": 33.39471054, "lat": 67.99667358}},
{"model": "rzd.station", "pk": 192, "fields": {"name": "Купчинская", "kod": 33108, "csvt": "3310", "region": 2, "rvc": 7, "lon": 30.41955376, "lat": 59.82576752}},
{"model": "rzd.station", "pk": 193, "fields": {"name": "Кушавера", "kod": 43805, "csvt": "4380", "region": 6, "rvc": 6, "lon": 34.6649971, "lat": 58.8683548}},
{"model": "rzd.station", "pk": 194, "fields": {"name": "Кушелевка", "kod": 37405, "csvt": "3740", "region": 3, "rvc": 8, "lon": 30.35476685, "lat": 59.99046326}},
{"model": "rzd.station", "pk": 195, "fields": {"name": "Кяппесельга", "kod": 11005, "csvt": "1100", "region": 4, "rvc": 4, "lon": 34.26928329, "lat": 62.6740799}},
{"model": "rzd.station", "pk": 196, "fields": {"name": "Ладва", "kod": 49708, "csvt": "4970", "region": 4, "rvc": 4, "lon": 34.45646667, "lat": 61.34807587}},
{"model": "rzd.station", "pk": 197, "fields": {"name": "Ладожское Озеро", "kod": 36337, "csvt": "3633", "region": 3, "rvc": 8, "lon": 31.06487656, "lat": 60.12691879}},
{"model": "rzd.station", "pk": 198, "fields": {"name": "Лазурная", "kod": 61447, "csvt": "6144", "region": 1, "rvc": 1, "lon": 35.98069763, "lat": 56.8009758}},
{"model": "rzd.station", "pk": 199, "fields": {"name": "Ламбино", "kod": 13227, "csvt": "1322", "region": 4, "rvc": 4, "lon": 34.58300018, "lat": 65.08992767}},
{"model": "rzd.station", "pk": 200, "fields": {"name": "Ланская", "kod": 38215, "csvt": "3821", "region": 3, "rvc": 8, "lon": 30.32758141, "lat": 59.99496078}},
{"model": "rzd.station", "pk": 201, "fields": {"name": "Лапино", "kod": 71307, "csvt": "7130", "region": 2, "rvc": 3, "lon": 28.98886299, "lat": 58.18142319}},
{"model": "rzd.station", "pk": 202, "fields": {"name": "Лапландия", "kod": 16600, "csvt": "1661", "region": 5, "rvc": 5, "lon": 33.32600403, "lat": 68.27259827}},
{"model": "rzd.station", "pk": 203, "fields": {"name": "Лахколамен", "kod": 26509, "csvt": "2650", "region": 4, "rvc": 4, "lon": 32.64677048, "lat": 62.43447495}},
{"model": "rzd.station", "pk": 204, "fields": {"name": "Лебяжье", "kod": 75007, "csvt": "7500", "region": 2, "rvc": 7, "lon": 29.41540337, "lat": 59.95516205}},
{"model": "rzd.station", "pk": 205, "fields": {"name": "Левашово", "kod": 38807, "csvt": "3880", "region": 3, "rvc": 8, "lon": 30.21862221, "lat": 60.10431671}},
{"model": "rzd.station", "pk": 206, "fields": {"name": "Левошинка", "kod": 62327, "csvt": "6232", "region": 1, "rvc": 1, "lon": 35.10300064, "lat": 57.35266495}},
{"model": "rzd.station", "pk": 207, "fields": {"name": "Ледмозеро", "kod": 27709, "csvt": "2770", "region": 4, "rvc": 4, "lon": 32.04017258, "lat": 64.25811005}},
{"model": "rzd.station", "pk": 208, "fields": {"name": "Лейпясуо", "kod": 20818, "csvt": "2081", "region": 3, "rvc": 8, "lon": 29.15485954, "lat": 60.55157852}},
{"model": "rzd.station", "pk": 209, "fields": {"name": "Леменка", "kod": 57935, "csvt": "5793", "region": 2, "rvc": 3, "lon": 30.13605881, "lat": 57.97018814}},
{"model": "rzd.station", "pk": 210, "fields": {"name": "Леонтьево", "kod": 62806, "csvt": "6280", "region": 1, "rvc": 2, "lon": 34.45436478, "lat": 57.64782715}},
{"model": "rzd.station", "pk": 211, "fields": {"name": "Леппясилта", "kod": 24908, "csvt": "2490", "region": 6, "rvc": 6, "lon": 31.26125336, "lat": 61.68035889}},
{"model": "rzd.station", "pk": 212, "fields": {"name": "Леппясюрья", "kod": 26231, "csvt": "2623", "region": 4, "rvc": 4, "lon": 31.3336525, "lat": 61.86991882}},
{"model": "rzd.station", "pk": 213, "fields": {"name": "Лесогорский", "kod": 22007, "csvt": "2200", "region": 3, "rvc": 8, "lon": 28.92511559, "lat": 61.04912567}},
{"model": "rzd.station", "pk": 214, "fields": {"name": "Ливамяэ", "kod": 70728, "csvt": "7072", "region": 2, "rvc": 3, "lon": 27.78375053, "lat": 57.79788971}},
{"model": "rzd.station", "pk": 215, "fields": {"name": "Лигово", "kod": 34505, "csvt": "3450", "region": 2, "rvc": 7, "lon": 30.18090439, "lat": 59.82327271}},
{"model": "rzd.station", "pk": 216, "fields": {"name": "Лижма", "kod": 10820, "csvt": "1082", "region": 4, "rvc": 4, "lon": 34.43115997, "lat": 62.41857147}},
{"model": "rzd.station", "pk": 217, "fields": {"name": "Лисий Нос", "kod": 39000, "csvt": "3900", "region": 3, "rvc": 8, "lon": 30.01244164, "lat": 60.01442719}},
{"model": "rzd.station", "pk": 218, "fields": {"name": "Лихославль", "kod": 62100, "csvt": "6210", "region": 1, "rvc": 1, "lon": 35.4649353, "lat": 57.12693787}},
{"model": "rzd.station", "pk": 219, "fields": {"name": "Лодейное Поле", "kod": 49106, "csvt": "4910", "region": 6, "rvc": 6, "lon": 33.55498123, "lat": 60.72788239}},
{"model": "rzd.station", "pk": 220, "fields": {"name": "Лоймола", "kod": 26000, "csvt": "2600", "region": 4, "rvc": 4, "lon": 31.74139404, "lat": 61.97844315}},
{"model": "rzd.station", "pk": 221, "fields": {"name": "Локня", "kod": 57009, "csvt": "5700", "region": 2, "rvc": 3, "lon": 30.15338707, "lat": 56.82786942}},
{"model": "rzd.station", "pk": 222, "fields": {"name": "Лопарская", "kod": 16757, "csvt": "1675", "region": 5, "rvc": 5, "lon": 33.21894836, "lat": 68.63661957}},
{"model": "rzd.station", "pk": 223, "fields": {"name": "Лосево", "kod": 22616, "csvt": "2261", "region": 3, "rvc": 8, "lon": 30.00359154, "lat": 60.68520737}},
{"model": "rzd.station", "pk": 224, "fields": {"name": "Лоухи", "kod": 13801, "csvt": "1380", "region": 5, "rvc": 5, "lon": 33.05914307, "lat": 66.07538605}},
{"model": "rzd.station", "pk": 225, "fields": {"name": "Луга-2", "kod": 72013, "csvt": "7201", "region": 2, "rvc": 7, "lon": 29.8339653, "lat": 58.70963669}},
{"model": "rzd.station", "pk": 226, "fields": {"name": "Лужайка", "kod": 21331, "csvt": "2133", "region": 3, "rvc": 8, "lon": 28.47686386, "lat": 60.80596924}},
{"model": "rzd.station", "pk": 227, "fields": {"name": "Лужская-Сортировочная", "kod": 76300, "csvt": "7450", "region": 2, "rvc": 7, "lon": 28.53655434, "lat": 59.62869644}},
{"model": "rzd.station", "pk": 228, "fields": {"name": "Лунгачи", "kod": 48705, "csvt": "4870", "region": 6, "rvc": 6, "lon": 32.65262604, "lat": 60.11653519}},
{"model": "rzd.station", "pk": 229, "fields": {"name": "Лыкошино", "kod": 53258, "csvt": "5325", "region": 1, "rvc": 2, "lon": 33.71398163, "lat": 58.10531998}},
{"model": "rzd.station", "pk": 230, "fields": {"name": "Любань", "kod": 42408, "csvt": "4240", "region": 3, "rvc": 8, "lon": 31.25045395, "lat": 59.35133743}},
{"model": "rzd.station", "pk": 231, "fields": {"name": "Любятово", "kod": 70615, "csvt": "7061", "region": 2, "rvc": 3, "lon": 28.40365982, "lat": 57.81732941}},
{"model": "rzd.station", "pk": 232, "fields": {"name": "Лямцево", "kod": 71716, "csvt": "7170", "region": 2, "rvc": 3, "lon": 29.47976875, "lat": 58.50847244}},
{"model": "rzd.station", "pk": 233, "fields": {"name": "Ляскеля", "kod": 25008, "csvt": "2500", "region": 6, "rvc": 6, "lon": 30.98909569, "lat": 61.76086807}},
{"model": "rzd.station", "pk": 234, "fields": {"name": "Магнетиты", "kod": 16831, "csvt": "1683", "region": 5, "rvc": 5, "lon": 33.12649155, "lat": 68.67992401}},
{"model": "rzd.station", "pk": 235, "fields": {"name": "Маево", "kod": 66536, "csvt": "6653", "region": 2, "rvc": 3, "lon": 29.79217911, "lat": 56.36409378}},
{"model": "rzd.station", "pk": 236, "fields": {"name": "Май-Губа", "kod": 11819, "csvt": "1181", "region": 4, "rvc": 4, "lon": 34.25279999, "lat": 63.81563568}},
{"model": "rzd.station", "pk": 237, "fields": {"name": "Максатиха", "kod": 51905, "csvt": "5190", "region": 1, "rvc": 2, "lon": 35.86008072, "lat": 57.79706192}},
{"model": "rzd.station", "pk": 238, "fields": {"name": "Малая Вишера", "kod": 41602, "csvt": "4160", "region": 3, "rvc": 8, "lon": 32.22135925, "lat": 58.84619522}},
{"model": "rzd.station", "pk": 239, "fields": {"name": "Маленьга", "kod": 12397, "csvt": "1239", "region": 4, "rvc": 4, "lon": 36.46100235, "lat": 63.85428619}},
{"model": "rzd.station", "pk": 240, "fields": {"name": "Малукса", "kod": 45800, "csvt": "4580", "region": 3, "rvc": 8, "lon": 31.4041996, "lat": 59.63024521}},
{"model": "rzd.station", "pk": 241, "fields": {"name": "Малышево", "kod": 52005, "csvt": "5200", "region": 1, "rvc": 2, "lon": 35.62595367, "lat": 57.831604}},
{"model": "rzd.station", "pk": 242, "fields": {"name": "Манушкино", "kod": 30504, "csvt": "3050", "region": 3, "rvc": 8, "lon": 30.73327065, "lat": 59.85409927}},
{"model": "rzd.station", "pk": 243, "fields": {"name": "Масельская", "kod": 11541, "csvt": "1154", "region": 4, "rvc": 4, "lon": 34.30173492, "lat": 63.15102386}},
{"model": "rzd.station", "pk": 244, "fields": {"name": "Маткаселькя", "kod": 24005, "csvt": "2400", "region": 4, "rvc": 4, "lon": 30.53711319, "lat": 61.96747589}},
{"model": "rzd.station", "pk": 245, "fields": {"name": "Матросово", "kod": 20521, "csvt": "2052", "region": 3, "rvc": 8, "lon": 28.74501419, "lat": 60.60957718}},
{"model": "rzd.station", "pk": 246, "fields": {"name": "Мга", "kod": 30203, "csvt": "3020", "region": 3, "rvc": 8, "lon": 31.0616188, "lat": 59.7554245}},
{"model": "rzd.station", "pk": 247, "fields": {"name": "Медведево", "kod": 52700, "csvt": "5270", "region": 1, "rvc": 2, "lon": 34.10984039, "lat": 57.88204956}},
{"model": "rzd.station", "pk": 248, "fields": {"name": "Медвежья Гора", "kod": 11306, "csvt": "1130", "region": 4, "rvc": 4, "lon": 34.44932556, "lat": 62.90855408}},
{"model": "rzd.station", "pk": 249, "fields": {"name": "Мельничный Ручей", "kod": 36106, "csvt": "3610", "region": 3, "rvc": 8, "lon": 30.6794281, "lat": 60.01890564}},
{"model": "rzd.station", "pk": 250, "fields": {"name": "Металлострой", "kod": 31621, "csvt": "3162", "region": 3, "rvc": 8, "lon": 30.5386467, "lat": 59.78859711}},
{"model": "rzd.station", "pk": 251, "fields": {"name": "Моглино", "kod": 70910, "csvt": "7091", "region": 2, "rvc": 3, "lon": 28.16765785, "lat": 57.78281403}},
{"model": "rzd.station", "pk": 252, "fields": {"name": "Молодежная", "kod": 39320, "csvt": "3932", "region": 2, "rvc": 7, "lon": 30.37794876, "lat": 59.82566071}},
{"model": "rzd.station", "pk": 253, "fields": {"name": "Молосковицы", "kod": 73707, "csvt": "7370", "region": 2, "rvc": 7, "lon": 29.06041908, "lat": 59.39756775}},
{"model": "rzd.station", "pk": 254, "fields": {"name": "Мончалово", "kod": 64303, "csvt": "6430", "region": 1, "rvc": 1, "lon": 34.11354446, "lat": 56.22417831}},
{"model": "rzd.station", "pk": 255, "fields": {"name": "Мончегорск", "kod": 16403, "csvt": "1640", "region": 5, "rvc": 5, "lon": 32.87471008, "lat": 67.95163727}},
{"model": "rzd.station", "pk": 256, "fields": {"name": "Морино", "kod": 56608, "csvt": "5660", "region": 2, "rvc": 3, "lon": 30.34538078, "lat": 57.89390945}},
{"model": "rzd.station", "pk": 257, "fields": {"name": "Москва-Пассажирская", "kod": 60073, "csvt": "6007", "region": 1, "rvc": 1, "lon": 37.65372086, "lat": 55.7788353}},
{"model": "rzd.station", "pk": 258, "fields": {"name": "Москва-Товарная", "kod": 60209, "csvt": "6020", "region": 1, "rvc": 1, "lon": 37.6262207, "lat": 55.80244827}},
{"model": "rzd.station", "pk": 259, "fields": {"name": "Московское Море", "kod": 61310, "csvt": "6131", "region": 1, "rvc": 1, "lon": 36.33342361, "lat": 56.61193085}},
{"model": "rzd.station", "pk": 260, "fields": {"name": "Моссельмаш", "kod": 60020, "csvt": "6002", "region": 1, "rvc": 1, "lon": 37.52835464, "lat": 55.86172867}},
{"model": "rzd.station", "pk": 261, "fields": {"name": "Мстинский Мост", "kod": 41418, "csvt": "4141", "region": 3, "rvc": 8, "lon": 32.57420349, "lat": 58.68982697}},
{"model": "rzd.station", "pk": 262, "fields": {"name": "Мурманск", "kod": 18409, "csvt": "1840", "region": 5, "rvc": 5, "lon": 33.06923676, "lat": 68.97197723}},
{"model": "rzd.station", "pk": 263, "fields": {"name": "Мурманские Ворота", "kod": 48508, "csvt": "4850", "region": 6, "rvc": 6, "lon": 32.38080597, "lat": 59.93564224}},
{"model": "rzd.station", "pk": 264, "fields": {"name": "Мурмаши", "kod": 17105, "csvt": "1710", "region": 5, "rvc": 5, "lon": 32.81881332, "lat": 68.81989288}},
{"model": "rzd.station", "pk": 265, "fields": {"name": "Мшинская", "kod": 72206, "csvt": "7220", "region": 2, "rvc": 7, "lon": 29.94935226, "lat": 59.01755905}},
{"model": "rzd.station", "pk": 266, "fields": {"name": "Мыслино", "kod": 47844, "csvt": "4784", "region": 6, "rvc": 6, "lon": 32.59077454, "lat": 59.84572983}},
{"model": "rzd.station", "pk": 267, "fields": {"name": "Мюллюпельто", "kod": 22902, "csvt": "2290", "region": 3, "rvc": 8, "lon": 30.08004951, "lat": 60.9076767}},
{"model": "rzd.station", "pk": 268, "fields": {"name": "Мягрека", "kod": 13119, "csvt": "1311", "region": 4, "rvc": 4, "lon": 34.6701889, "lat": 64.86296082}},
{"model": "rzd.station", "pk": 269, "fields": {"name": "Мянсельга", "kod": 10727, "csvt": "1072", "region": 4, "rvc": 4, "lon": 34.44886398, "lat": 62.26054764}},
{"model": "rzd.station", "pk": 270, "fields": {"name": "Мясной Бор", "kod": 40652, "csvt": "4065", "region": 3, "rvc": 8, "lon": 31.46533203, "lat": 58.81779861}},
{"model": "rzd.station", "pk": 271, "fields": {"name": "Навалочная", "kod": 31032, "csvt": "3103", "region": 3, "rvc": 8, "lon": 30.37186813, "lat": 59.90717316}},
{"model": "rzd.station", "pk": 272, "fields": {"name": "Надвоицы", "kod": 11908, "csvt": "1190", "region": 4, "rvc": 4, "lon": 34.26830673, "lat": 63.89356613}},
{"model": "rzd.station", "pk": 273, "fields": {"name": "Назия", "kod": 48442, "csvt": "4844", "region": 3, "rvc": 8, "lon": 31.37996483, "lat": 59.79981613}},
{"model": "rzd.station", "pk": 274, "fields": {"name": "Нарачино", "kod": 54903, "csvt": "5490", "region": 1, "rvc": 2, "lon": 33.74081039, "lat": 57.90932083}},
{"model": "rzd.station", "pk": 275, "fields": {"name": "Нарвская", "kod": 35705, "csvt": "3570", "region": 2, "rvc": 7, "lon": 30.28147125, "lat": 59.87170792}},
{"model": "rzd.station", "pk": 276, "fields": {"name": "Неболчи", "kod": 44507, "csvt": "4450", "region": 6, "rvc": 6, "lon": 33.34258652, "lat": 59.12195206}},
{"model": "rzd.station", "pk": 277, "fields": {"name": "Нева", "kod": 36801, "csvt": "3680", "region": 3, "rvc": 8, "lon": 30.495327, "lat": 59.88920975}},
{"model": "rzd.station", "pk": 278, "fields": {"name": "Невдубстрой", "kod": 30107, "csvt": "3010", "region": 3, "rvc": 8, "lon": 31.01329231, "lat": 59.85531616}},
{"model": "rzd.station", "pk": 279, "fields": {"name": "Невель-2", "kod": 67104, "csvt": "6710", "region": 2, "rvc": 3, "lon": 29.93428802, "lat": 56.0190773}},
{"model": "rzd.station", "pk": 280, "fields": {"name": "Невская Дубровка", "kod": 36604, "csvt": "3660", "region": 3, "rvc": 8, "lon": 30.92877388, "lat": 59.84380341}},
{"model": "rzd.station", "pk": 281, "fields": {"name": "Нелазское", "kod": 46019, "csvt": "4601", "region": 6, "rvc": 6, "lon": 37.64909363, "lat": 59.15340042}},
{"model": "rzd.station", "pk": 282, "fields": {"name": "Нелидово", "kod": 64708, "csvt": "6470", "region": 1, "rvc": 1, "lon": 32.77890778, "lat": 56.22115326}},
{"model": "rzd.station", "pk": 283, "fields": {"name": "Нигозеро", "kod": 10905, "csvt": "1090", "region": 4, "rvc": 4, "lon": 34.33430481, "lat": 62.22364426}},
{"model": "rzd.station", "pk": 284, "fields": {"name": "Низовская", "kod": 72210, "csvt": "7221", "region": 2, "rvc": 7, "lon": 29.97711182, "lat": 59.10277557}},
{"model": "rzd.station", "pk": 285, "fields": {"name": "Никель-Мурманский", "kod": 18201, "csvt": "1820", "region": 5, "rvc": 5, "lon": 30.25650215, "lat": 69.42014313}},
{"model": "rzd.station", "pk": 286, "fields": {"name": "Новая Деревня", "kod": 38900, "csvt": "3890", "region": 3, "rvc": 8, "lon": 30.29681015, "lat": 59.99176788}},
{"model": "rzd.station", "pk": 287, "fields": {"name": "Новгород-Лужский", "kod": 40120, "csvt": "4012", "region": 3, "rvc": 8, "lon": 31.23310661, "lat": 58.55213165}},
{"model": "rzd.station", "pk": 288, "fields": {"name": "Новинка", "kod": 58904, "csvt": "5890", "region": 2, "rvc": 7, "lon": 30.37681198, "lat": 59.18679428}},
{"model": "rzd.station", "pk": 289, "fields": {"name": "Новоизборск", "kod": 70802, "csvt": "7080", "region": 2, "rvc": 3, "lon": 27.96949196, "lat": 57.77468872}},
{"model": "rzd.station", "pk": 290, "fields": {"name": "Новолисино", "kod": 32302, "csvt": "3230", "region": 3, "rvc": 8, "lon": 30.5457859, "lat": 59.57577896}},
{"model": "rzd.station", "pk": 291, "fields": {"name": "Новоселье", "kod": 71203, "csvt": "7120", "region": 2, "rvc": 3, "lon": 28.87566948, "lat": 58.11177826}},
{"model": "rzd.station", "pk": 292, "fields": {"name": "Новосокольники", "kod": 66602, "csvt": "6660", "region": 2, "rvc": 3, "lon": 30.14706039, "lat": 56.34392548}},
{"model": "rzd.station", "pk": 293, "fields": {"name": "Новые Пески", "kod": 25703, "csvt": "2570", "region": 4, "rvc": 4, "lon": 32.94664764, "lat": 61.83368683}},
{"model": "rzd.station", "pk": 294, "fields": {"name": "Новый Быт", "kod": 48122, "csvt": "4812", "region": 6, "rvc": 6, "lon": 31.92610741, "lat": 59.89178848}},
{"model": "rzd.station", "pk": 295, "fields": {"name": "Новый Петергоф", "kod": 75512, "csvt": "7551", "region": 2, "rvc": 7, "lon": 29.92845535, "lat": 59.8637085}},
{"model": "rzd.station", "pk": 296, "fields": {"name": "Новый Порт", "kod": 35809, "csvt": "3580", "region": 2, "rvc": 7, "lon": 30.2374897, "lat": 59.90930176}},
{"model": "rzd.station", "pk": 297, "fields": {"name": "Новый Поселок", "kod": 11503, "csvt": "1083", "region": 4, "rvc": 4, "lon": 34.35131073, "lat": 62.48950958}},
{"model": "rzd.station", "pk": 298, "fields": {"name": "Нюхча", "kod": 12544, "csvt": "1254", "region": 4, "rvc": 4, "lon": 36.25744629, "lat": 63.90993118}},
{"model": "rzd.station", "pk": 299, "fields": {"name": "Ням-Озеро", "kod": 14611, "csvt": "1461", "region": 5, "rvc": 5, "lon": 31.45433807, "lat": 66.96260834}},
{"model": "rzd.station", "pk": 300, "fields": {"name": "Обухово", "kod": 31009, "csvt": "3100", "region": 3, "rvc": 8, "lon": 30.45319176, "lat": 59.84943771}},
{"model": "rzd.station", "pk": 301, "fields": {"name": "Огарево", "kod": 43608, "csvt": "4360", "region": 6, "rvc": 6, "lon": 35.2063179, "lat": 59.09297562}},
{"model": "rzd.station", "pk": 302, "fields": {"name": "Окуловка", "kod": 53703, "csvt": "5370", "region": 3, "rvc": 8, "lon": 33.30065536, "lat": 58.37192535}},
{"model": "rzd.station", "pk": 303, "fields": {"name": "Оленегорск", "kod": 16308, "csvt": "1630", "region": 5, "rvc": 5, "lon": 33.31286621, "lat": 68.13611603}},
{"model": "rzd.station", "pk": 304, "fields": {"name": "Оленино", "kod": 64500, "csvt": "6450", "region": 1, "rvc": 1, "lon": 33.48806, "lat": 56.20445251}},
{"model": "rzd.station", "pk": 305, "fields": {"name": "Олонец", "kod": 24408, "csvt": "2440", "region": 6, "rvc": 6, "lon": 32.96352386, "lat": 60.9882431}},
{"model": "rzd.station", "pk": 306, "fields": {"name": "Онежский", "kod": 49905, "csvt": "4990", "region": 4, "rvc": 4, "lon": 34.44570541, "lat": 61.73946381}},
{"model": "rzd.station", "pk": 307, "fields": {"name": "Ораниенбаум", "kod": 75401, "csvt": "7540", "region": 2, "rvc": 7, "lon": 29.77167511, "lat": 59.91766739}},
{"model": "rzd.station", "pk": 308, "fields": {"name": "Оредеж", "kod": 58502, "csvt": "5850", "region": 2, "rvc": 7, "lon": 30.33053017, "lat": 58.81631088}},
{"model": "rzd.station", "pk": 309, "fields": {"name": "Орехово", "kod": 37804, "csvt": "3780", "region": 3, "rvc": 8, "lon": 30.26114082, "lat": 60.46443558}},
{"model": "rzd.station", "pk": 310, "fields": {"name": "Осеченка", "kod": 62505, "csvt": "6250", "region": 1, "rvc": 2, "lon": 34.80203247, "lat": 57.54420471}},
{"model": "rzd.station", "pk": 311, "fields": {"name": "Останкино", "kod": 60054, "csvt": "6005", "region": 1, "rvc": 1, "lon": 37.60333633, "lat": 55.81748199}},
{"model": "rzd.station", "pk": 312, "fields": {"name": "Осташков", "kod": 69203, "csvt": "6920", "region": 1, "rvc": 2, "lon": 33.12466812, "lat": 57.1339035}},
{"model": "rzd.station", "pk": 313, "fields": {"name": "Остолопово", "kod": 51318, "csvt": "5131", "region": 1, "rvc": 2, "lon": 37.06235504, "lat": 58.20546722}},
{"model": "rzd.station", "pk": 314, "fields": {"name": "Остров", "kod": 70200, "csvt": "7020", "region": 2, "rvc": 3, "lon": 28.31697655, "lat": 57.35440445}},
{"model": "rzd.station", "pk": 315, "fields": {"name": "Осуга", "kod": 63601, "csvt": "6360", "region": 1, "rvc": 1, "lon": 34.32187653, "lat": 56.03090668}},
{"model": "rzd.station", "pk": 316, "fields": {"name": "Отрадное", "kod": 22813, "csvt": "2281", "region": 3, "rvc": 8, "lon": 30.12957382, "lat": 60.82505417}},
{"model": "rzd.station", "pk": 317, "fields": {"name": "Оять-Волховстроевский", "kod": 49002, "csvt": "4900", "region": 6, "rvc": 6, "lon": 33.1415596, "lat": 60.4554863}},
{"model": "rzd.station", "pk": 318, "fields": {"name": "Павловск", "kod": 32508, "csvt": "3250", "region": 2, "rvc": 7, "lon": 30.43277168, "lat": 59.6935463}},
{"model": "rzd.station", "pk": 319, "fields": {"name": "Падозеро", "kod": 25328, "csvt": "2532", "region": 4, "rvc": 4, "lon": 33.91668701, "lat": 61.86514664}},
{"model": "rzd.station", "pk": 320, "fields": {"name": "Панышино", "kod": 52310, "csvt": "5231", "region": 1, "rvc": 2, "lon": 34.8910675, "lat": 57.89838028}},
{"model": "rzd.station", "pk": 321, "fields": {"name": "Парголово", "kod": 38510, "csvt": "3851", "region": 3, "rvc": 8, "lon": 30.25859642, "lat": 60.08118439}},
{"model": "rzd.station", "pk": 322, "fields": {"name": "Парнас", "kod": 38309, "csvt": "3830", "region": 3, "rvc": 8, "lon": 30.35786438, "lat": 60.05810165}},
{"model": "rzd.station", "pk": 323, "fields": {"name": "Паровозный Музей", "kod": 32995, "csvt": "3299", "region": 2, "rvc": 7, "lon": 30.39747047, "lat": 59.78765488}},
{"model": "rzd.station", "pk": 324, "fields": {"name": "Парфино", "kod": 56203, "csvt": "5620", "region": 2, "rvc": 3, "lon": 31.61098862, "lat": 57.96272278}},
{"model": "rzd.station", "pk": 325, "fields": {"name": "Паша", "kod": 48902, "csvt": "4890", "region": 6, "rvc": 6, "lon": 33.04685593, "lat": 60.39622879}},
{"model": "rzd.station", "pk": 326, "fields": {"name": "Пелла", "kod": 30608, "csvt": "3060", "region": 3, "rvc": 8, "lon": 30.83286858, "lat": 59.76900482}},
{"model": "rzd.station", "pk": 327, "fields": {"name": "Пено", "kod": 69109, "csvt": "6910", "region": 1, "rvc": 2, "lon": 32.74421692, "lat": 56.9220314}},
{"model": "rzd.station", "pk": 328, "fields": {"name": "Пергуба", "kod": 11109, "csvt": "1110", "region": 4, "rvc": 4, "lon": 34.45722198, "lat": 62.80158234}},
{"model": "rzd.station", "pk": 329, "fields": {"name": "Пери", "kod": 37700, "csvt": "3770", "region": 3, "rvc": 8, "lon": 30.46421242, "lat": 60.24716949}},
{"model": "rzd.station", "pk": 330, "fields": {"name": "Пестово", "kod": 42906, "csvt": "4290", "region": 6, "rvc": 6, "lon": 35.80675888, "lat": 58.60128784}},
{"model": "rzd.station", "pk": 331, "fields": {"name": "Песь", "kod": 44009, "csvt": "4400", "region": 6, "rvc": 6, "lon": 34.33768463, "lat": 58.91165543}},
{"model": "rzd.station", "pk": 332, "fields": {"name": "Петрозаводск", "kod": 10002, "csvt": "1000", "region": 4, "rvc": 4, "lon": 34.34402084, "lat": 61.78421783}},
{"model": "rzd.station", "pk": 333, "fields": {"name": "Петрокрепость", "kod": 36500, "csvt": "3650", "region": 3, "rvc": 8, "lon": 31.02809525, "lat": 59.96095657}},
{"model": "rzd.station", "pk": 334, "fields": {"name": "Петяярви", "kod": 22645, "csvt": "2264", "region": 3, "rvc": 8, "lon": 30.11213875, "lat": 60.63170242}},
{"model": "rzd.station", "pk": 335, "fields": {"name": "Печоры-Псковские", "kod": 70709, "csvt": "7070", "region": 2, "rvc": 3, "lon": 27.63262558, "lat": 57.83777237}},
{"model": "rzd.station", "pk": 336, "fields": {"name": "Пийтсиёки", "kod": 25900, "csvt": "2590", "region": 4, "rvc": 4, "lon": 32.09983063, "lat": 62.03116608}},
{"model": "rzd.station", "pk": 337, "fields": {"name": "Пинозеро", "kod": 15102, "csvt": "1510", "region": 5, "rvc": 5, "lon": 32.49833679, "lat": 67.31718445}},
{"model": "rzd.station", "pk": 338, "fields": {"name": "Пискаревка", "kod": 37024, "csvt": "3702", "region": 3, "rvc": 8, "lon": 30.42501068, "lat": 59.98820496}},
{"model": "rzd.station", "pk": 339, "fields": {"name": "Питкуль", "kod": 15627, "csvt": "1562", "region": 5, "rvc": 5, "lon": 33.18715668, "lat": 67.45955658}},
{"model": "rzd.station", "pk": 340, "fields": {"name": "Питкяранта", "kod": 24804, "csvt": "2480", "region": 6, "rvc": 6, "lon": 31.46224594, "lat": 61.57395554}},
{"model": "rzd.station", "pk": 341, "fields": {"name": "Пихтовое", "kod": 20610, "csvt": "2061", "region": 3, "rvc": 8, "lon": 28.61256599, "lat": 60.5993042}},
{"model": "rzd.station", "pk": 342, "fields": {"name": "Плюсса", "kod": 71608, "csvt": "7160", "region": 2, "rvc": 3, "lon": 29.36296272, "lat": 58.4233017}},
{"model": "rzd.station", "pk": 343, "fields": {"name": "Поваровка", "kod": 60637, "csvt": "6063", "region": 1, "rvc": 1, "lon": 37.07680511, "lat": 56.0638504}},
{"model": "rzd.station", "pk": 344, "fields": {"name": "Погостье", "kod": 45711, "csvt": "4571", "region": 3, "rvc": 8, "lon": 31.53799248, "lat": 59.59915161}},
{"model": "rzd.station", "pk": 345, "fields": {"name": "Подберезье", "kod": 40703, "csvt": "4070", "region": 3, "rvc": 8, "lon": 31.36300659, "lat": 58.70118332}},
{"model": "rzd.station", "pk": 346, "fields": {"name": "Подборовье", "kod": 46803, "csvt": "4680", "region": 6, "rvc": 6, "lon": 35.03829956, "lat": 59.50761414}},
{"model": "rzd.station", "pk": 347, "fields": {"name": "Подпорожье", "kod": 49303, "csvt": "4930", "region": 6, "rvc": 6, "lon": 34.06858826, "lat": 60.90200043}},
{"model": "rzd.station", "pk": 348, "fields": {"name": "Подсолнечная", "kod": 60800, "csvt": "6080", "region": 1, "rvc": 1, "lon": 36.97157669, "lat": 56.18430328}},
{"model": "rzd.station", "pk": 349, "fields": {"name": "Полковая", "kod": 71006, "csvt": "7100", "region": 2, "rvc": 3, "lon": 28.30126953, "lat": 57.78848267}},
{"model": "rzd.station", "pk": 350, "fields": {"name": "Полюстрово", "kod": 37306, "csvt": "3730", "region": 3, "rvc": 8, "lon": 30.44504738, "lat": 59.96720123}},
{"model": "rzd.station", "pk": 351, "fields": {"name": "Полярные Зори", "kod": 15504, "csvt": "1550", "region": 5, "rvc": 5, "lon": 32.48715973, "lat": 67.3732605}},
{"model": "rzd.station", "pk": 352, "fields": {"name": "Полярный Круг", "kod": 14338, "csvt": "1433", "region": 5, "rvc": 5, "lon": 32.85043716, "lat": 66.43583679}},
{"model": "rzd.station", "pk": 353, "fields": {"name": "Померанье", "kod": 42338, "csvt": "4233", "region": 3, "rvc": 8, "lon": 31.32546425, "lat": 59.31162643}},
{"model": "rzd.station", "pk": 354, "fields": {"name": "Поньгома", "kod": 13231, "csvt": "1323", "region": 4, "rvc": 4, "lon": 34.4650383, "lat": 65.24330139}},
{"model": "rzd.station", "pk": 355, "fields": {"name": "Поплавенец", "kod": 50029, "csvt": "5002", "region": 1, "rvc": 2, "lon": 33.98028183, "lat": 57.93707275}},
{"model": "rzd.station", "pk": 356, "fields": {"name": "Поповка", "kod": 31348, "csvt": "3134", "region": 3, "rvc": 8, "lon": 30.7021904, "lat": 59.67915726}},
{"model": "rzd.station", "pk": 357, "fields": {"name": "Попово", "kod": 20517, "csvt": "2051", "region": 3, "rvc": 8, "lon": 28.71549797, "lat": 60.58598709}},
{"model": "rzd.station", "pk": 358, "fields": {"name": "Пороги", "kod": 45482, "csvt": "4548", "region": 6, "rvc": 6, "lon": 32.31867981, "lat": 59.87643814}},
{"model": "rzd.station", "pk": 359, "fields": {"name": "Порхов", "kod": 57704, "csvt": "5770", "region": 2, "rvc": 3, "lon": 29.53022766, "lat": 57.7661705}},
{"model": "rzd.station", "pk": 360, "fields": {"name": "Посадниково", "kod": 45247, "csvt": "4524", "region": 3, "rvc": 8, "lon": 31.8960228, "lat": 59.47234344}},
{"model": "rzd.station", "pk": 361, "fields": {"name": "Пост 5 Км", "kod": 37043, "csvt": "2212", "region": 3, "rvc": 8, "lon": 30.3922348, "lat": 59.89296341}},
{"model": "rzd.station", "pk": 362, "fields": {"name": "Пояконда", "kod": 14357, "csvt": "1435", "region": 5, "rvc": 5, "lon": 32.80942154, "lat": 66.58660126}},
{"model": "rzd.station", "pk": 363, "fields": {"name": "Предпортовая", "kod": 35014, "csvt": "3500", "region": 2, "rvc": 7, "lon": 30.29022598, "lat": 59.83277893}},
{"model": "rzd.station", "pk": 364, "fields": {"name": "Предузловая-Павловская", "kod": 40737, "csvt": "4073", "region": 3, "rvc": 8, "lon": 31.2453289, "lat": 58.56631088}},
{"model": "rzd.station", "pk": 365, "fields": {"name": "Пригородная", "kod": 21505, "csvt": "2150", "region": 3, "rvc": 8, "lon": 28.65021706, "lat": 60.75214386}},
{"model": "rzd.station", "pk": 366, "fields": {"name": "Приданиха", "kod": 42821, "csvt": "4282", "region": 6, "rvc": 6, "lon": 36.10344696, "lat": 58.5427475}},
{"model": "rzd.station", "pk": 367, "fields": {"name": "Приозерск", "kod": 23002, "csvt": "2300", "region": 3, "rvc": 8, "lon": 30.10265541, "lat": 61.0358696}},
{"model": "rzd.station", "pk": 368, "fields": {"name": "Проспект Славы", "kod": 33038, "csvt": "3303", "region": 2, "rvc": 7, "lon": 30.36557198, "lat": 59.85174179}},
{"model": "rzd.station", "pk": 369, "fields": {"name": "Пруды", "kod": 22103, "csvt": "2210", "region": 3, "rvc": 8, "lon": 29.03441811, "lat": 61.01275635}},
{"model": "rzd.station", "pk": 370, "fields": {"name": "Пудость", "kod": 34128, "csvt": "3412", "region": 2, "rvc": 7, "lon": 30.08187103, "lat": 59.60676193}},
{"model": "rzd.station", "pk": 371, "fields": {"name": "Пулозеро", "kod": 16627, "csvt": "1662", "region": 5, "rvc": 5, "lon": 33.29750824, "lat": 68.35838318}},
{"model": "rzd.station", "pk": 372, "fields": {"name": "Пупышево", "kod": 40031, "csvt": "4003", "region": 6, "rvc": 6, "lon": 32.10168457, "lat": 59.90445328}},
{"model": "rzd.station", "pk": 373, "fields": {"name": "Пустошка", "kod": 66402, "csvt": "6640", "region": 2, "rvc": 3, "lon": 29.37148094, "lat": 56.34016418}},
{"model": "rzd.station", "pk": 374, "fields": {"name": "Пустынька", "kod": 32105, "csvt": "3210", "region": 3, "rvc": 8, "lon": 30.84266281, "lat": 59.66036987}},
{"model": "rzd.station", "pk": 375, "fields": {"name": "Пчевжа", "kod": 45105, "csvt": "4510", "region": 3, "rvc": 8, "lon": 32.32962036, "lat": 59.35702515}},
{"model": "rzd.station", "pk": 376, "fields": {"name": "Пыталово", "kod": 77905, "csvt": "7790", "region": 2, "rvc": 3, "lon": 27.91111946, "lat": 57.06466293}},
{"model": "rzd.station", "pk": 377, "fields": {"name": "Пяжиева Сельга", "kod": 49604, "csvt": "4960", "region": 4, "rvc": 4, "lon": 34.48803711, "lat": 61.48640442}},
{"model": "rzd.station", "pk": 378, "fields": {"name": "Пяйве", "kod": 17302, "csvt": "1730", "region": 5, "rvc": 5, "lon": 32.45413589, "lat": 68.96932983}},
{"model": "rzd.station", "pk": 379, "fields": {"name": "Разъезд Генерала Омельченко", "kod": 72028, "csvt": "7200", "region": 2, "rvc": 7, "lon": 29.86618996, "lat": 58.79120636}},
{"model": "rzd.station", "pk": 380, "fields": {"name": "Райконкоски", "kod": 26104, "csvt": "2610", "region": 4, "rvc": 4, "lon": 31.54512978, "lat": 61.92153168}},
{"model": "rzd.station", "pk": 381, "fields": {"name": "Раменцы", "kod": 11522, "csvt": "1152", "region": 4, "rvc": 4, "lon": 34.31671143, "lat": 63.27685547}},
{"model": "rzd.station", "pk": 382, "fields": {"name": "Редкино", "kod": 61409, "csvt": "6140", "region": 1, "rvc": 1, "lon": 36.29565048, "lat": 56.64514542}},
{"model": "rzd.station", "pk": 383, "fields": {"name": "Репино", "kod": 39227, "csvt": "3922", "region": 3, "rvc": 8, "lon": 29.86839676, "lat": 60.17296219}},
{"model": "rzd.station", "pk": 384, "fields": {"name": "Решетниково", "kod": 61108, "csvt": "6110", "region": 1, "rvc": 1, "lon": 36.56694412, "lat": 56.44946289}},
{"model": "rzd.station", "pk": 385, "fields": {"name": "Ржев-Балтийский", "kod": 63006, "csvt": "6300", "region": 1, "rvc": 1, "lon": 34.32061768, "lat": 56.23945999}},
{"model": "rzd.station", "pk": 386, "fields": {"name": "Ржев-Белорусский", "kod": 63103, "csvt": "6310", "region": 1, "rvc": 1, "lon": 34.31025696, "lat": 56.27191162}},
{"model": "rzd.station", "pk": 387, "fields": {"name": "Ржевка", "kod": 37005, "csvt": "3700", "region": 3, "rvc": 8, "lon": 30.51580238, "lat": 59.9808197}},
{"model": "rzd.station", "pk": 388, "fields": {"name": "Рижская", "kod": 60069, "csvt": "6006", "region": 1, "rvc": 1, "lon": 37.63998795, "lat": 55.79671478}},
{"model": "rzd.station", "pk": 389, "fields": {"name": "Рогавка", "kod": 40900, "csvt": "4090", "region": 3, "rvc": 8, "lon": 31.07217598, "lat": 58.94926453}},
{"model": "rzd.station", "pk": 390, "fields": {"name": "Рощино", "kod": 39405, "csvt": "3940", "region": 3, "rvc": 8, "lon": 29.57426071, "lat": 60.24910355}},
{"model": "rzd.station", "pk": 391, "fields": {"name": "Рудничная", "kod": 73105, "csvt": "7310", "region": 2, "rvc": 7, "lon": 28.18725777, "lat": 59.11697006}},
{"model": "rzd.station", "pk": 392, "fields": {"name": "Рудный", "kod": 16225, "csvt": "1622", "region": 5, "rvc": 5, "lon": 33.33468246, "lat": 67.94339752}},
{"model": "rzd.station", "pk": 393, "fields": {"name": "Ручьи", "kod": 38101, "csvt": "3810", "region": 3, "rvc": 8, "lon": 30.44077682, "lat": 60.00405502}},
{"model": "rzd.station", "pk": 394, "fields": {"name": "Ручьи-Карельские", "kod": 14450, "csvt": "1445", "region": 5, "rvc": 5, "lon": 32.19226074, "lat": 67.00610352}},
{"model": "rzd.station", "pk": 395, "fields": {"name": "Рыбацкое", "kod": 30909, "csvt": "3090", "region": 3, "rvc": 8, "lon": 30.50115585, "lat": 59.83127213}},
{"model": "rzd.station", "pk": 396, "fields": {"name": "Рябово", "kod": 42501, "csvt": "4250", "region": 3, "rvc": 8, "lon": 31.12616158, "lat": 59.41677856}},
{"model": "rzd.station", "pk": 397, "fields": {"name": "Саблино", "kod": 31333, "csvt": "3133", "region": 3, "rvc": 8, "lon": 30.75711441, "lat": 59.63528442}},
{"model": "rzd.station", "pk": 398, "fields": {"name": "Савелово", "kod": 50300, "csvt": "5030", "region": 1, "rvc": 2, "lon": 37.37684631, "lat": 56.85573578}},
{"model": "rzd.station", "pk": 399, "fields": {"name": "Сала", "kod": 73406, "csvt": "7340", "region": 2, "rvc": 7, "lon": 28.42663765, "lat": 59.37709808}},
{"model": "rzd.station", "pk": 400, "fields": {"name": "Салми", "kod": 24700, "csvt": "2470", "region": 6, "rvc": 6, "lon": 31.84132195, "lat": 61.37395859}},
{"model": "rzd.station", "pk": 401, "fields": {"name": "Самолуково", "kod": 56909, "csvt": "5690", "region": 2, "rvc": 3, "lon": 30.1856842, "lat": 56.6543045}},
{"model": "rzd.station", "pk": 402, "fields": {"name": "Сандово", "kod": 42802, "csvt": "4280", "region": 6, "rvc": 6, "lon": 36.4044075, "lat": 58.46224976}},
{"model": "rzd.station", "pk": 403, "fields": {"name": "Санкт-Петербург-Главный", "kod": 31812, "csvt": "3181", "region": 3, "rvc": 8, "lon": 30.3631134, "lat": 59.92693329}},
{"model": "rzd.station", "pk": 404, "fields": {"name": "Саперная", "kod": 30701, "csvt": "3070", "region": 3, "rvc": 8, "lon": 30.67828941, "lat": 59.77281952}},
{"model": "rzd.station", "pk": 405, "fields": {"name": "Светогорск", "kod": 21806, "csvt": "2180", "region": 3, "rvc": 8, "lon": 28.84592247, "lat": 61.11769485}},
{"model": "rzd.station", "pk": 406, "fields": {"name": "Свирь", "kod": 49407, "csvt": "4940", "region": 4, "rvc": 4, "lon": 34.08350372, "lat": 60.95386887}},
{"model": "rzd.station", "pk": 407, "fields": {"name": "Себеж", "kod": 66101, "csvt": "6610", "region": 2, "rvc": 3, "lon": 28.46951675, "lat": 56.30551529}},
{"model": "rzd.station", "pk": 408, "fields": {"name": "Сегежа", "kod": 11804, "csvt": "1180", "region": 4, "rvc": 4, "lon": 34.30266571, "lat": 63.74424362}},
{"model": "rzd.station", "pk": 409, "fields": {"name": "Селижарово", "kod": 68501, "csvt": "6850", "region": 1, "rvc": 2, "lon": 33.46384048, "lat": 56.85760498}},
{"model": "rzd.station", "pk": 410, "fields": {"name": "Семрино", "kod": 59108, "csvt": "5910", "region": 2, "rvc": 7, "lon": 30.38020325, "lat": 59.54161835}},
{"model": "rzd.station", "pk": 411, "fields": {"name": "Серебрянка", "kod": 71805, "csvt": "7180", "region": 2, "rvc": 3, "lon": 29.61260223, "lat": 58.58418274}},
{"model": "rzd.station", "pk": 412, "fields": {"name": "Сиверская", "kod": 72507, "csvt": "7250", "region": 2, "rvc": 7, "lon": 30.06263733, "lat": 59.35468674}},
{"model": "rzd.station", "pk": 413, "fields": {"name": "Сиг", "kod": 13528, "csvt": "1352", "region": 4, "rvc": 4, "lon": 34.20231628, "lat": 65.57349396}},
{"model": "rzd.station", "pk": 414, "fields": {"name": "Сиуч", "kod": 46249, "csvt": "4624", "region": 6, "rvc": 6, "lon": 36.42962646, "lat": 59.28256226}},
{"model": "rzd.station", "pk": 415, "fields": {"name": "Скнятино", "kod": 50423, "csvt": "5042", "region": 1, "rvc": 1, "lon": 37.68843079, "lat": 57.10112762}},
{"model": "rzd.station", "pk": 416, "fields": {"name": "Славянка", "kod": 31634, "csvt": "3163", "region": 3, "rvc": 8, "lon": 30.51273537, "lat": 59.80729675}},
{"model": "rzd.station", "pk": 417, "fields": {"name": "Сланцы", "kod": 73001, "csvt": "7300", "region": 2, "rvc": 7, "lon": 28.09968376, "lat": 59.10591507}},
{"model": "rzd.station", "pk": 418, "fields": {"name": "Соблаго", "kod": 68107, "csvt": "6813", "region": 1, "rvc": 2, "lon": 32.65405273, "lat": 56.88822556}},
{"model": "rzd.station", "pk": 419, "fields": {"name": "Советский", "kod": 20502, "csvt": "2050", "region": 3, "rvc": 8, "lon": 28.69012642, "lat": 60.5285759}},
{"model": "rzd.station", "pk": 420, "fields": {"name": "Сологубовка", "kod": 45849, "csvt": "4584", "region": 3, "rvc": 8, "lon": 31.16015816, "lat": 59.72655106}},
{"model": "rzd.station", "pk": 421, "fields": {"name": "Сольцы", "kod": 58001, "csvt": "5800", "region": 2, "rvc": 3, "lon": 30.25977325, "lat": 58.13053513}},
{"model": "rzd.station", "pk": 422, "fields": {"name": "Соминка", "kod": 44102, "csvt": "4410", "region": 6, "rvc": 6, "lon": 34.08071899, "lat": 58.95376968}},
{"model": "rzd.station", "pk": 423, "fields": {"name": "Сонково", "kod": 51106, "csvt": "5110", "region": 1, "rvc": 2, "lon": 37.16191101, "lat": 57.78048706}},
{"model": "rzd.station", "pk": 424, "fields": {"name": "Сортавала", "kod": 23708, "csvt": "2370", "region": 4, "rvc": 4, "lon": 30.67456436, "lat": 61.69484711}},
{"model": "rzd.station", "pk": 425, "fields": {"name": "Сосновец", "kod": 12309, "csvt": "1230", "region": 4, "rvc": 4, "lon": 34.46925354, "lat": 64.4311676}},
{"model": "rzd.station", "pk": 426, "fields": {"name": "Сосново", "kod": 37503, "csvt": "3750", "region": 3, "rvc": 8, "lon": 30.21636009, "lat": 60.54753113}},
{"model": "rzd.station", "pk": 427, "fields": {"name": "Спасская Полисть", "kod": 40671, "csvt": "4067", "region": 3, "rvc": 8, "lon": 31.50547409, "lat": 58.92833328}},
{"model": "rzd.station", "pk": 428, "fields": {"name": "Спирово", "kod": 62401, "csvt": "6240", "region": 1, "rvc": 2, "lon": 34.99559402, "lat": 57.42134094}},
{"model": "rzd.station", "pk": 429, "fields": {"name": "Среднерогатская", "kod": 34909, "csvt": "3490", "region": 2, "rvc": 7, "lon": 30.35676765, "lat": 59.81672287}},
{"model": "rzd.station", "pk": 430, "fields": {"name": "Старая Русса", "kod": 56307, "csvt": "5630", "region": 2, "rvc": 3, "lon": 31.34474754, "lat": 58.00028992}},
{"model": "rzd.station", "pk": 431, "fields": {"name": "Старая Торопа", "kod": 65407, "csvt": "6540", "region": 1, "rvc": 1, "lon": 31.66691017, "lat": 56.27970886}},
{"model": "rzd.station", "pk": 432, "fields": {"name": "Старица", "kod": 63705, "csvt": "6370", "region": 1, "rvc": 1, "lon": 34.77835464, "lat": 56.5370903}},
{"model": "rzd.station", "pk": 433, "fields": {"name": "Старый Петергоф", "kod": 75505, "csvt": "7550", "region": 2, "rvc": 7, "lon": 29.86232185, "lat": 59.87969208}},
{"model": "rzd.station", "pk": 434, "fields": {"name": "Стекольный", "kod": 32139, "csvt": "3213", "region": 3, "rvc": 8, "lon": 30.6554985, "lat": 59.58024979}},
{"model": "rzd.station", "pk": 435, "fields": {"name": "Стрельна", "kod": 75609, "csvt": "7560", "region": 2, "rvc": 7, "lon": 30.03193092, "lat": 59.84731293}},
{"model": "rzd.station", "pk": 436, "fields": {"name": "Строганово", "kod": 72403, "csvt": "7240", "region": 2, "rvc": 7, "lon": 30.03417969, "lat": 59.27168655}},
{"model": "rzd.station", "pk": 437, "fields": {"name": "Струги Красные", "kod": 71504, "csvt": "7150", "region": 2, "rvc": 3, "lon": 29.1113472, "lat": 58.26600647}},
{"model": "rzd.station", "pk": 438, "fields": {"name": "Суда", "kod": 46004, "csvt": "4600", "region": 6, "rvc": 6, "lon": 37.55145645, "lat": 59.15244293}},
{"model": "rzd.station", "pk": 439, "fields": {"name": "Судома", "kod": 57206, "csvt": "5720", "region": 2, "rvc": 3, "lon": 29.94943237, "lat": 57.47335815}},
{"model": "rzd.station", "pk": 440, "fields": {"name": "Суйда", "kod": 72530, "csvt": "7270", "region": 2, "rvc": 7, "lon": 30.10578537, "lat": 59.47622681}},
{"model": "rzd.station", "pk": 441, "fields": {"name": "Суккозеро", "kod": 27003, "csvt": "2700", "region": 4, "rvc": 4, "lon": 32.31951141, "lat": 63.172966}},
{"model": "rzd.station", "pk": 442, "fields": {"name": "Сумский Посад", "kod": 12703, "csvt": "1270", "region": 4, "rvc": 4, "lon": 35.39093781, "lat": 64.24757385}},
{"model": "rzd.station", "pk": 443, "fields": {"name": "Суна", "kod": 10500, "csvt": "1050", "region": 4, "rvc": 4, "lon": 34.24343872, "lat": 62.11172485}},
{"model": "rzd.station", "pk": 444, "fields": {"name": "Сухое", "kod": 12722, "csvt": "1272", "region": 4, "rvc": 4, "lon": 35.00601959, "lat": 64.39041138}},
{"model": "rzd.station", "pk": 445, "fields": {"name": "Сходня", "kod": 60406, "csvt": "6040", "region": 1, "rvc": 1, "lon": 37.29899979, "lat": 55.94965363}},
{"model": "rzd.station", "pk": 446, "fields": {"name": "Сяньга", "kod": 25421, "csvt": "2542", "region": 4, "rvc": 4, "lon": 33.33787537, "lat": 61.86861801}},
{"model": "rzd.station", "pk": 447, "fields": {"name": "Тайбола", "kod": 16719, "csvt": "1671", "region": 5, "rvc": 5, "lon": 33.34758759, "lat": 68.43496704}},
{"model": "rzd.station", "pk": 448, "fields": {"name": "Тальцы-Мологские", "kod": 44846, "csvt": "4484", "region": 6, "rvc": 6, "lon": 32.89248276, "lat": 59.1941452}},
{"model": "rzd.station", "pk": 449, "fields": {"name": "Таммисуо", "kod": 21007, "csvt": "2002", "region": 3, "rvc": 8, "lon": 28.80540657, "lat": 60.73270798}},
{"model": "rzd.station", "pk": 450, "fields": {"name": "Татьянино", "kod": 34030, "csvt": "3403", "region": 2, "rvc": 7, "lon": 30.13978195, "lat": 59.56524658}},
{"model": "rzd.station", "pk": 451, "fields": {"name": "Тверь", "kod": 61502, "csvt": "6150", "region": 1, "rvc": 1, "lon": 35.89295959, "lat": 56.83514404}},
{"model": "rzd.station", "pk": 452, "fields": {"name": "Тегозеро", "kod": 12629, "csvt": "1262", "region": 4, "rvc": 4, "lon": 35.55460358, "lat": 64.19023895}},
{"model": "rzd.station", "pk": 453, "fields": {"name": "Терешкино", "kod": 64201, "csvt": "6420", "region": 1, "rvc": 1, "lon": 35.20138931, "lat": 57.08200836}},
{"model": "rzd.station", "pk": 454, "fields": {"name": "Тешемля", "kod": 46502, "csvt": "4650", "region": 6, "rvc": 6, "lon": 35.62864685, "lat": 59.48329926}},
{"model": "rzd.station", "pk": 455, "fields": {"name": "Тигода", "kod": 42085, "csvt": "4208", "region": 3, "rvc": 8, "lon": 31.81411362, "lat": 59.35691071}},
{"model": "rzd.station", "pk": 456, "fields": {"name": "Тимошкино", "kod": 46315, "csvt": "4631", "region": 6, "rvc": 6, "lon": 36.15181732, "lat": 59.38288498}},
{"model": "rzd.station", "pk": 457, "fields": {"name": "Титан", "kod": 15805, "csvt": "1580", "region": 5, "rvc": 5, "lon": 33.62499237, "lat": 67.56137848}},
{"model": "rzd.station", "pk": 458, "fields": {"name": "Тихвин", "kod": 47505, "csvt": "4750", "region": 6, "rvc": 6, "lon": 33.5047493, "lat": 59.63632584}},
{"model": "rzd.station", "pk": 459, "fields": {"name": "Токари", "kod": 49500, "csvt": "4952", "region": 4, "rvc": 4, "lon": 34.39463425, "lat": 61.10136414}},
{"model": "rzd.station", "pk": 460, "fields": {"name": "Токсово", "kod": 37908, "csvt": "3790", "region": 3, "rvc": 8, "lon": 30.50899506, "lat": 60.1491127}},
{"model": "rzd.station", "pk": 461, "fields": {"name": "Толмачево", "kod": 72102, "csvt": "7210", "region": 2, "rvc": 7, "lon": 29.89678955, "lat": 58.86462021}},
{"model": "rzd.station", "pk": 462, "fields": {"name": "Торбино", "kod": 41208, "csvt": "4120", "region": 3, "rvc": 8, "lon": 32.88058472, "lat": 58.58189774}},
{"model": "rzd.station", "pk": 463, "fields": {"name": "Торжок", "kod": 64106, "csvt": "6410", "region": 1, "rvc": 1, "lon": 34.98044968, "lat": 57.04228973}},
{"model": "rzd.station", "pk": 464, "fields": {"name": "Торопец", "kod": 67706, "csvt": "6770", "region": 1, "rvc": 2, "lon": 31.64795876, "lat": 56.51399612}},
{"model": "rzd.station", "pk": 465, "fields": {"name": "Торошино", "kod": 71106, "csvt": "7110", "region": 2, "rvc": 3, "lon": 28.59504318, "lat": 57.9347229}},
{"model": "rzd.station", "pk": 466, "fields": {"name": "Торфяное", "kod": 42200, "csvt": "4220", "region": 3, "rvc": 8, "lon": 31.5758152, "lat": 59.17825699}},
{"model": "rzd.station", "pk": 467, "fields": {"name": "Тосно", "kod": 31302, "csvt": "3130", "region": 3, "rvc": 8, "lon": 30.88191414, "lat": 59.54452896}},
{"model": "rzd.station", "pk": 468, "fields": {"name": "Тунгуда", "kod": 12116, "csvt": "1211", "region": 4, "rvc": 4, "lon": 34.30392838, "lat": 64.22820282}},
{"model": "rzd.station", "pk": 469, "fields": {"name": "Турышино", "kod": 45824, "csvt": "4582", "region": 3, "rvc": 8, "lon": 31.24163437, "lat": 59.69049454}},
{"model": "rzd.station", "pk": 470, "fields": {"name": "Углич", "kod": 50601, "csvt": "5060", "region": 1, "rvc": 2, "lon": 38.32513428, "lat": 57.50727844}},
{"model": "rzd.station", "pk": 471, "fields": {"name": "Угловка", "kod": 53309, "csvt": "5330", "region": 1, "rvc": 2, "lon": 33.50881577, "lat": 58.23343277}},
{"model": "rzd.station", "pk": 472, "fields": {"name": "Уда", "kod": 12313, "csvt": "1231", "region": 4, "rvc": 4, "lon": 34.57571411, "lat": 64.49071503}},
{"model": "rzd.station", "pk": 473, "fields": {"name": "Удельная", "kod": 38525, "csvt": "3852", "region": 3, "rvc": 8, "lon": 30.31339073, "lat": 60.01753998}},
{"model": "rzd.station", "pk": 474, "fields": {"name": "Удомля", "kod": 52306, "csvt": "5230", "region": 1, "rvc": 2, "lon": 35.00733566, "lat": 57.88007355}},
{"model": "rzd.station", "pk": 475, "fields": {"name": "Уйта", "kod": 46216, "csvt": "4621", "region": 6, "rvc": 6, "lon": 36.75875473, "lat": 59.23635101}},
{"model": "rzd.station", "pk": 476, "fields": {"name": "Уросозеро", "kod": 11749, "csvt": "1174", "region": 4, "rvc": 4, "lon": 34.24414444, "lat": 63.4377327}},
{"model": "rzd.station", "pk": 477, "fields": {"name": "Уторгош", "kod": 58105, "csvt": "5810", "region": 2, "rvc": 3, "lon": 30.24323845, "lat": 58.28299713}},
{"model": "rzd.station", "pk": 478, "fields": {"name": "Ухтица", "kod": 12633, "csvt": "1263", "region": 4, "rvc": 4, "lon": 35.91553879, "lat": 64.04734039}},
{"model": "rzd.station", "pk": 479, "fields": {"name": "Ушаки", "kod": 31206, "csvt": "3120", "region": 3, "rvc": 8, "lon": 31.00763893, "lat": 59.47885895}},
{"model": "rzd.station", "pk": 480, "fields": {"name": "Ушково", "kod": 39316, "csvt": "3931", "region": 3, "rvc": 8, "lon": 29.62462425, "lat": 60.2207756}},
{"model": "rzd.station", "pk": 481, "fields": {"name": "Фарфоровская", "kod": 31013, "csvt": "3101", "region": 3, "rvc": 8, "lon": 30.40756226, "lat": 59.87915802}},
{"model": "rzd.station", "pk": 482, "fields": {"name": "Фирово", "kod": 69307, "csvt": "6930", "region": 1, "rvc": 2, "lon": 33.69910812, "lat": 57.48320389}},
{"model": "rzd.station", "pk": 483, "fields": {"name": "Хвойная", "kod": 43909, "csvt": "4390", "region": 6, "rvc": 6, "lon": 34.50370026, "lat": 58.89294434}},
{"model": "rzd.station", "pk": 484, "fields": {"name": "Хибины", "kod": 16121, "csvt": "1612", "region": 5, "rvc": 5, "lon": 33.21194839, "lat": 67.67337799}},
{"model": "rzd.station", "pk": 485, "fields": {"name": "Хийтола", "kod": 22404, "csvt": "2240", "region": 3, "rvc": 8, "lon": 29.6879158, "lat": 61.23551178}},
{"model": "rzd.station", "pk": 486, "fields": {"name": "Химки", "kod": 60302, "csvt": "6030", "region": 1, "rvc": 1, "lon": 37.45347214, "lat": 55.89369583}},
{"model": "rzd.station", "pk": 487, "fields": {"name": "Ховрино", "kod": 60001, "csvt": "6000", "region": 1, "rvc": 1, "lon": 37.48740768, "lat": 55.87916946}},
{"model": "rzd.station", "pk": 488, "fields": {"name": "Царское Село", "kod": 32707, "csvt": "3270", "region": 2, "rvc": 7, "lon": 30.42967987, "lat": 59.72303772}},
{"model": "rzd.station", "pk": 489, "fields": {"name": "Цветочная", "kod": 35207, "csvt": "3520", "region": 2, "rvc": 7, "lon": 30.33425522, "lat": 59.88711929}},
{"model": "rzd.station", "pk": 490, "fields": {"name": "Цвылево", "kod": 47613, "csvt": "4761", "region": 6, "rvc": 6, "lon": 33.215065, "lat": 59.64600372}},
{"model": "rzd.station", "pk": 491, "fields": {"name": "Чагода", "kod": 43504, "csvt": "4350", "region": 6, "rvc": 6, "lon": 35.31044388, "lat": 59.15749741}},
{"model": "rzd.station", "pk": 492, "fields": {"name": "Чална-Онежская", "kod": 25309, "csvt": "2530", "region": 4, "rvc": 4, "lon": 34.08392334, "lat": 61.87795258}},
{"model": "rzd.station", "pk": 493, "fields": {"name": "Череха", "kod": 70408, "csvt": "7040", "region": 2, "rvc": 3, "lon": 28.3717823, "lat": 57.74893188}},
{"model": "rzd.station", "pk": 494, "fields": {"name": "Чертолино", "kod": 64430, "csvt": "6443", "region": 1, "rvc": 1, "lon": 33.89966202, "lat": 56.20322037}},
{"model": "rzd.station", "pk": 495, "fields": {"name": "Чолово", "kod": 58711, "csvt": "5871", "region": 2, "rvc": 7, "lon": 30.42868996, "lat": 58.95768356}},
{"model": "rzd.station", "pk": 496, "fields": {"name": "Чудово-Кировское", "kod": 42022, "csvt": "4202", "region": 3, "rvc": 8, "lon": 31.66699982, "lat": 59.16456985}},
{"model": "rzd.station", "pk": 497, "fields": {"name": "Чудово-Московское", "kod": 42003, "csvt": "4200", "region": 3, "rvc": 8, "lon": 31.67928696, "lat": 59.12264633}},
{"model": "rzd.station", "pk": 498, "fields": {"name": "Чупа", "kod": 14304, "csvt": "1430", "region": 5, "rvc": 5, "lon": 32.9666748, "lat": 66.26634979}},
{"model": "rzd.station", "pk": 499, "fields": {"name": "Чуприяновка", "kod": 61432, "csvt": "6143", "region": 1, "rvc": 1, "lon": 36.04138565, "lat": 56.75643921}},
{"model": "rzd.station", "pk": 500, "fields": {"name": "Шавань", "kod": 11912, "csvt": "1191", "region": 4, "rvc": 4, "lon": 34.23610687, "lat": 63.94480133}},
{"model": "rzd.station", "pk": 501, "fields": {"name": "Шапки", "kod": 31507, "csvt": "3150", "region": 3, "rvc": 8, "lon": 31.16775131, "lat": 59.59126663}},
{"model": "rzd.station", "pk": 502, "fields": {"name": "Шишково", "kod": 51801, "csvt": "5180", "region": 1, "rvc": 2, "lon": 36.47229385, "lat": 57.78786087}},
{"model": "rzd.station", "pk": 503, "fields": {"name": "Шонгуй", "kod": 16954, "csvt": "1695", "region": 5, "rvc": 5, "lon": 33.16016006, "lat": 68.75344086}},
{"model": "rzd.station", "pk": 504, "fields": {"name": "Шоссейная", "kod": 34810, "csvt": "3481", "region": 2, "rvc": 7, "lon": 30.3327446, "lat": 59.80804825}},
{"model": "rzd.station", "pk": 505, "fields": {"name": "Шубино", "kod": 66614, "csvt": "6661", "region": 2, "rvc": 3, "lon": 30.18427277, "lat": 56.41895294}},
{"model": "rzd.station", "pk": 506, "fields": {"name": "Шувалово", "kod": 38506, "csvt": "3850", "region": 3, "rvc": 8, "lon": 30.29763794, "lat": 60.04656219}},
{"model": "rzd.station", "pk": 507, "fields": {"name": "Шуерецкая", "kod": 13123, "csvt": "1312", "region": 4, "rvc": 4, "lon": 34.69934082, "lat": 64.73918915}},
{"model": "rzd.station", "pk": 508, "fields": {"name": "Шуйская", "kod": 10407, "csvt": "1040", "region": 4, "rvc": 4, "lon": 34.25039291, "lat": 61.94111252}},
{"model": "rzd.station", "pk": 509, "fields": {"name": "Шушары", "kod": 33004, "csvt": "3300", "region": 2, "rvc": 7, "lon": 30.3884697, "lat": 59.80579758}},
{"model": "rzd.station", "pk": 510, "fields": {"name": "Элисенваара", "kod": 23202, "csvt": "2320", "region": 3, "rvc": 8, "lon": 29.76240349, "lat": 61.41191101}},
{"model": "rzd.station", "pk": 511, "fields": {"name": "Энгозеро", "kod": 13602, "csvt": "1360", "region": 4, "rvc": 4, "lon": 33.9444313, "lat": 65.7900238}},
{"model": "rzd.station", "pk": 512, "fields": {"name": "Эссойла", "kod": 25506, "csvt": "2550", "region": 4, "rvc": 4, "lon": 33.21437836, "lat": 61.84416199}},
{"model": "rzd.station", "pk": 513, "fields": {"name": "Юги", "kod": 48828, "csvt": "4882", "region": 6, "rvc": 6, "lon": 32.8036232, "lat": 60.2400856}},
{"model": "rzd.station", "pk": 514, "fields": {"name": "Яблоновка", "kod": 53328, "csvt": "5332", "region": 1, "rvc": 2, "lon": 33.42360687, "lat": 58.2947464}},
{"model": "rzd.station", "pk": 515, "fields": {"name": "Ягельный Бор", "kod": 16244, "csvt": "1624", "region": 5, "rvc": 5, "lon": 33.36455536, "lat": 68.04699707}},
{"model": "rzd.station", "pk": 516, "fields": {"name": "Яккима", "kod": 23604, "csvt": "2360", "region": 4, "rvc": 4, "lon": 30.13059998, "lat": 61.5165596}},
{"model": "rzd.station", "pk": 517, "fields": {"name": "Яндеба", "kod": 49229, "csvt": "4922", "region": 6, "rvc": 6, "lon": 33.9882164, "lat": 60.83757401}},
{"model": "rzd.station", "pk": 518, "fields": {"name": "Янега", "kod": 49207, "csvt": "4920", "region": 6, "rvc": 6, "lon": 33.71364975, "lat": 60.74975586}},
{"model": "rzd.station", "pk": 519, "fields": {"name": "Янисъярви", "kod": 25120, "csvt": "2512", "region": 4, "rvc": 4, "lon": 30.94782829, "lat": 61.89091492}}
]
